time,place,status,tsunami,significance,data_type,magnitudo,state,longitude,latitude,depth,date,geometry
631263990820,"4 km SE of Arette, France",reviewed,0,15,earthquake,1.0, France,-0.674,43.067,10.0,1990-01-02 07:06:30.820000+00:00,POINT (-0.674 43.067)
631288243760,"15 km NNE of Ansó, Spain",reviewed,0,22,earthquake,1.2, Spain,-0.771,42.888,10.0,1990-01-02 13:50:43.760000+00:00,POINT (-0.771 42.888)
631331248370,"12 km NE of Arthez-de-Béarn, France",reviewed,0,178,earthquake,3.4, France,-0.491,43.527,16.0,1990-01-03 01:47:28.370000+00:00,POINT (-0.491 43.527)
631500574890,"6 km WNW of Olvera, Spain",reviewed,0,96,earthquake,2.5, Spain,-5.338,36.948,10.0,1990-01-05 00:49:34.890000+00:00,POINT (-5.338 36.948)
631729283830,"11 km ESE of Ammi Moussa, Algeria",reviewed,0,211,earthquake,3.7, Algeria,1.227,35.817,10.0,1990-01-07 16:21:23.830000+00:00,POINT (1.227 35.817)
631750826530,"5 km ENE of El Gastor, Spain",reviewed,0,81,earthquake,2.3, Spain,-5.26,36.867,10.0,1990-01-07 22:20:26.530000+00:00,POINT (-5.26 36.867)
631864885580,"3 km W of Dos Aguas, Spain",reviewed,0,148,earthquake,3.1, Spain,-0.843,39.281,10.0,1990-01-09 06:01:25.580000+00:00,POINT (-0.843 39.281)
631880901060,"5 km SSW of Bosdarros, France",reviewed,0,168,earthquake,3.3, France,-0.399,43.164,10.0,1990-01-09 10:28:21.060000+00:00,POINT (-0.399 43.164)
631882140930,"9 km E of Arette, France",reviewed,0,50,earthquake,1.8, France,-0.605,43.086,10.0,1990-01-09 10:49:00.930000+00:00,POINT (-0.605 43.086)
632120088220,"5 km SE of Arette, France",reviewed,0,15,earthquake,1.0, France,-0.667,43.065,10.0,1990-01-12 04:54:48.220000+00:00,POINT (-0.667 43.065)
632120438620,"6 km W of Ventas de Huelma, Spain",reviewed,0,158,earthquake,3.2, Spain,-3.891,37.067,10.0,1990-01-12 05:00:38.620000+00:00,POINT (-3.891 37.067)
632212062460,"3 km N of Ardales, Spain",reviewed,0,112,earthquake,2.7, Spain,-4.854,36.912,10.0,1990-01-13 06:27:42.460000+00:00,POINT (-4.854 36.912)
632268834010,"3 km WSW of Louvie-Juzon, France",reviewed,0,15,earthquake,1.0, France,-0.458,43.08,10.0,1990-01-13 22:13:54.010000+00:00,POINT (-0.458 43.08)
632329811270,"6 km SE of Campillos, Spain",reviewed,0,112,earthquake,2.7, Spain,-4.806,37.012,10.0,1990-01-14 15:10:11.270000+00:00,POINT (-4.806 37.012)
632553933660,"13 km SW of Mauléon-Licharre, France",reviewed,0,15,earthquake,1.0, France,-1.001,43.134,10.0,1990-01-17 05:25:33.660000+00:00,POINT (-1.001 43.134)
632643451390,"2 km SSE of Martos, Spain",reviewed,0,112,earthquake,2.7, Spain,-3.965,37.697,33.0,1990-01-18 06:17:31.390000+00:00,POINT (-3.965 37.697)
633004202770,"5 km SE of Villaharta, Spain",reviewed,0,104,earthquake,2.6, Spain,-4.861,38.1,10.0,1990-01-22 10:30:02.770000+00:00,POINT (-4.861 38.1)
633037950650,"7 km S of Fuentes de León, Spain",reviewed,0,168,earthquake,3.3, Spain,-6.527,38.002,10.0,1990-01-22 19:52:30.650000+00:00,POINT (-6.527 38.002)
633043969290,"4 km SE of Martos, Spain",reviewed,0,104,earthquake,2.6, Spain,-3.93,37.693,33.0,1990-01-22 21:32:49.290000+00:00,POINT (-3.93 37.693)
633121993100,"6 km NNW of Coripe, Spain",reviewed,0,121,earthquake,2.8, Spain,-5.458,37.028,10.0,1990-01-23 19:13:13.100000+00:00,POINT (-5.458 37.028)
633129899870,"7 km NNW of Coripe, Spain",reviewed,0,138,earthquake,3.0, Spain,-5.47,37.037,10.0,1990-01-23 21:24:59.870000+00:00,POINT (-5.47 37.037)
633130650000,"6 km NNW of Coripe, Spain",reviewed,0,178,earthquake,3.4, Spain,-5.479,37.026,10.0,1990-01-23 21:37:30+00:00,POINT (-5.479 37.026)
633147770010,"7 km S of Morón de la Frontera, Spain",reviewed,0,121,earthquake,2.8, Spain,-5.463,37.055,10.0,1990-01-24 02:22:50.010000+00:00,POINT (-5.463 37.055)
633153047670,"7 km N of Coripe, Spain",reviewed,0,96,earthquake,2.5, Spain,-5.452,37.043,10.0,1990-01-24 03:50:47.670000+00:00,POINT (-5.452 37.043)
633153121470,"6 km NE of Montellano, Spain",reviewed,0,168,earthquake,3.3, Spain,-5.511,37.034,10.0,1990-01-24 03:52:01.470000+00:00,POINT (-5.511 37.034)
633500451250,northern Algeria,reviewed,0,199,earthquake,3.6,northern Algeria,2.589,36.451,10.0,1990-01-28 04:20:51.250000+00:00,POINT (2.589 36.451)
634007229720,"16 km NNE of El Abadia, Algeria",reviewed,0,178,earthquake,3.4, Algeria,1.727,36.419,10.0,1990-02-03 01:07:09.720000+00:00,POINT (1.727 36.419)
634150536270,"17 km S of Aïn Defla, Algeria",reviewed,0,222,earthquake,3.8, Algeria,1.94,36.106,10.0,1990-02-04 16:55:36.270000+00:00,POINT (1.94 36.106)
634202264530,"18 km NW of Bou Ismaïl, Algeria",reviewed,0,284,earthquake,4.3, Algeria,2.534,36.749,10.0,1990-02-05 07:17:44.530000+00:00,POINT (2.534 36.749)
634290087470,"7 km S of Torremolinos, Spain",reviewed,0,138,earthquake,3.0, Spain,-4.498,36.553,90.1,1990-02-06 07:41:27.470000+00:00,POINT (-4.498 36.553)
634453517520,"3 km ESE of Dílar, Spain",reviewed,0,129,earthquake,2.9, Spain,-3.568,37.056,10.0,1990-02-08 05:05:17.520000+00:00,POINT (-3.568 37.056)
634501113260,"9 km W of Arette, France",reviewed,0,15,earthquake,1.0, France,-0.831,43.087,10.0,1990-02-08 18:18:33.260000+00:00,POINT (-0.831 43.087)
634555907630,"20 km N of Tipasa, Algeria",reviewed,0,416,earthquake,5.2, Algeria,2.477,36.775,12.4,1990-02-09 09:31:47.630000+00:00,POINT (2.477 36.775)
634562214540,"13 km NNE of Tipasa, Algeria",reviewed,0,284,earthquake,4.3, Algeria,2.5,36.699,10.0,1990-02-09 11:16:54.540000+00:00,POINT (2.5 36.699)
634562396460,"9 km W of Bou Ismaïl, Algeria",reviewed,0,234,earthquake,3.9, Algeria,2.581,36.64,10.0,1990-02-09 11:19:56.460000+00:00,POINT (2.581 36.64)
634568993880,"13 km N of Tipasa, Algeria",reviewed,0,259,earthquake,4.1, Algeria,2.477,36.713,10.0,1990-02-09 13:09:53.880000+00:00,POINT (2.477 36.713)
634569570210,"23 km NNE of Tipasa, Algeria",reviewed,0,271,earthquake,4.2, Algeria,2.5,36.794,10.0,1990-02-09 13:19:30.210000+00:00,POINT (2.5 36.794)
634767180800,"2 km NNE of Montaut, France",reviewed,0,211,earthquake,3.7, France,-0.192,43.148,10.0,1990-02-11 20:13:00.800000+00:00,POINT (-0.192 43.148)
634861711410,"7 km ESE of Arette, France",reviewed,0,15,earthquake,1.0, France,-0.628,43.065,10.0,1990-02-12 22:28:31.410000+00:00,POINT (-0.628 43.065)
634873756420,"1 km NE of Oloron-Sainte-Marie, France",reviewed,0,15,earthquake,1.0, France,-0.595,43.205,10.0,1990-02-13 01:49:16.420000+00:00,POINT (-0.595 43.205)
634888478650,"2 km WSW of Louvie-Juzon, France",reviewed,0,15,earthquake,1.0, France,-0.451,43.077,10.0,1990-02-13 05:54:38.650000+00:00,POINT (-0.451 43.077)
635166514620,"5 km SW of Arette, France",reviewed,0,15,earthquake,1.0, France,-0.766,43.066,10.0,1990-02-16 11:08:34.620000+00:00,POINT (-0.766 43.066)
635189884450,"1 km NE of Laruns, France",reviewed,0,138,earthquake,3.0, France,-0.414,42.997,10.0,1990-02-16 17:38:04.450000+00:00,POINT (-0.414 42.997)
635211292520,"5 km NE of Ardales, Spain",reviewed,0,121,earthquake,2.8, Spain,-4.808,36.92,10.0,1990-02-16 23:34:52.520000+00:00,POINT (-4.808 36.92)
635268200650,"18 km NW of Bou Ismaïl, Algeria",reviewed,0,259,earthquake,4.1, Algeria,2.528,36.739,10.0,1990-02-17 15:23:20.650000+00:00,POINT (2.528 36.739)
635358193470,"10 km WSW of Bou Ismaïl, Algeria",reviewed,0,178,earthquake,3.4, Algeria,2.576,36.609,10.0,1990-02-18 16:23:13.470000+00:00,POINT (2.576 36.609)
635367816340,"2 km ENE of Abrigada, Portugal",reviewed,0,199,earthquake,3.6, Portugal,-8.991,39.155,10.0,1990-02-18 19:03:36.340000+00:00,POINT (-8.991 39.155)
635437470670,"3 km ESE of Pedro Abad, Spain",reviewed,0,121,earthquake,2.8, Spain,-4.418,37.956,10.0,1990-02-19 14:24:30.670000+00:00,POINT (-4.418 37.956)
635576771680,"2 km N of Fines, Spain",reviewed,0,168,earthquake,3.3, Spain,-2.261,37.386,10.0,1990-02-21 05:06:11.680000+00:00,POINT (-2.261 37.386)
635579100890,"8 km S of Oloron-Sainte-Marie, France",reviewed,0,15,earthquake,1.0, France,-0.618,43.119,10.0,1990-02-21 05:45:00.890000+00:00,POINT (-0.618 43.119)
635613871520,"97 km SSW of Sagres, Portugal",reviewed,0,148,earthquake,3.1, Portugal,-9.38,36.203,33.0,1990-02-21 15:24:31.520000+00:00,POINT (-9.38 36.203)
635838865660,"24 km NE of Vélez-Blanco, Spain",reviewed,0,104,earthquake,2.6, Spain,-1.906,37.849,10.0,1990-02-24 05:54:25.660000+00:00,POINT (-1.906 37.849)
636211422170,"15 km NNE of Oronz, Spain",reviewed,0,271,earthquake,4.2, Spain,-1.016,42.99,28.5,1990-02-28 13:23:42.170000+00:00,POINT (-1.016 42.99)
636326851310,"9 km WNW of Hellín, Spain",reviewed,0,168,earthquake,3.3, Spain,-1.789,38.553,10.0,1990-03-01 21:27:31.310000+00:00,POINT (-1.789 38.553)
636326851310,"9 km WNW of Hellín, Spain",reviewed,0,168,earthquake,3.3, Spain,-1.789,38.553,10.0,1990-03-01 21:27:31.310000+00:00,POINT (-1.789 38.553)
636340772990,"11 km WNW of Saint-Lary-Soulan, France",reviewed,0,129,earthquake,2.9, France,0.188,42.837,10.0,1990-03-02 01:19:32.990000+00:00,POINT (0.188 42.837)
636340772990,"11 km WNW of Saint-Lary-Soulan, France",reviewed,0,129,earthquake,2.9, France,0.188,42.837,10.0,1990-03-02 01:19:32.990000+00:00,POINT (0.188 42.837)
636611822820,"57 km SSE of Faro, Portugal",reviewed,0,178,earthquake,3.4, Portugal,-7.799,36.514,10.0,1990-03-05 04:37:02.820000+00:00,POINT (-7.799 36.514)
636691450410,"2 km SW of Arboleas, Spain",reviewed,0,112,earthquake,2.7, Spain,-2.097,37.331,10.0,1990-03-06 02:44:10.410000+00:00,POINT (-2.097 37.331)
636860235360,"5 km NNW of Lentegí, Spain",reviewed,0,259,earthquake,4.1, Spain,-3.691,36.885,625.4,1990-03-08 01:37:15.360000+00:00,POINT (-3.691 36.885)
636944991540,"9 km NE of Villanueva del Trabuco, Spain",reviewed,0,148,earthquake,3.1, Spain,-4.257,37.083,10.0,1990-03-09 01:09:51.540000+00:00,POINT (-4.257 37.083)
636947898700,"5 km SW of Villanueva de Algaidas, Spain",reviewed,0,129,earthquake,2.9, Spain,-4.499,37.149,10.0,1990-03-09 01:58:18.700000+00:00,POINT (-4.499 37.149)
637144107310,"11 km SW of Bou Ismaïl, Algeria",reviewed,0,326,earthquake,4.6, Algeria,2.585,36.578,33.0,1990-03-11 08:28:27.310000+00:00,POINT (2.585 36.578)
637320049250,"12 km SSE of Bni Bouayach, Morocco",reviewed,0,121,earthquake,2.8, Morocco,-3.779,35.005,10.0,1990-03-13 09:20:49.250000+00:00,POINT (-3.779 35.005)
637324975330,"9 km E of Arette, France",reviewed,0,15,earthquake,1.0, France,-0.606,43.087,10.0,1990-03-13 10:42:55.330000+00:00,POINT (-0.606 43.087)
637340301800,"1 km N of Pontacq, France",reviewed,0,158,earthquake,3.2, France,-0.116,43.201,10.0,1990-03-13 14:58:21.800000+00:00,POINT (-0.116 43.201)
637526758130,"75 km NNE of Sidi Akkacha, Algeria",reviewed,0,168,earthquake,3.3, Algeria,1.488,37.129,33.0,1990-03-15 18:45:58.130000+00:00,POINT (1.488 37.129)
637611834240,"17 km N of São Brás de Alportel, Portugal",reviewed,0,188,earthquake,3.5, Portugal,-7.924,37.31,33.0,1990-03-16 18:23:54.240000+00:00,POINT (-7.924 37.31)
637772626490,"2 km SW of Auñón, Spain",reviewed,0,96,earthquake,2.5, Spain,-2.817,40.499,10.0,1990-03-18 15:03:46.490000+00:00,POINT (-2.817 40.499)
637807106880,"3 km NE of Laruns, France",reviewed,0,89,earthquake,2.4, France,-0.395,43.007,10.0,1990-03-19 00:38:26.880000+00:00,POINT (-0.395 43.007)
638016511580,"6 km ESE of Ibi, Spain",reviewed,0,129,earthquake,2.9, Spain,-0.495,38.612,10.0,1990-03-21 10:48:31.580000+00:00,POINT (-0.495 38.612)
638125814380,"1 km WSW of Louvie-Juzon, France",reviewed,0,19,earthquake,1.1, France,-0.441,43.08,10.0,1990-03-22 17:10:14.380000+00:00,POINT (-0.441 43.08)
638162160600,west of Gibraltar,reviewed,0,199,earthquake,3.6,west of Gibraltar,-9.833,36.402,99.8,1990-03-23 03:16:00.600000+00:00,POINT (-9.833 36.402)
638165863520,"14 km SSW of San Vicente de la Barquera, Spain",reviewed,0,178,earthquake,3.4, Spain,-4.456,43.263,10.0,1990-03-23 04:17:43.520000+00:00,POINT (-4.456 43.263)
638320593240,"5 km S of Totana, Spain",reviewed,0,148,earthquake,3.1, Spain,-1.501,37.722,10.0,1990-03-24 23:16:33.240000+00:00,POINT (-1.501 37.722)
638496163340,"9 km S of San Vicente de la Barquera, Spain",reviewed,0,158,earthquake,3.2, Spain,-4.418,43.302,10.0,1990-03-27 00:02:43.340000+00:00,POINT (-4.418 43.302)
638508732460,"1 km WSW of Ledeuix, France",reviewed,0,199,earthquake,3.6, France,-0.641,43.208,14.1,1990-03-27 03:32:12.460000+00:00,POINT (-0.641 43.208)
638534469110,"2 km WSW of Ledeuix, France",reviewed,0,158,earthquake,3.2, France,-0.652,43.211,10.0,1990-03-27 10:41:09.110000+00:00,POINT (-0.652 43.211)
638665874200,"10 km WSW of Arette, France",reviewed,0,15,earthquake,1.0, France,-0.827,43.054,10.0,1990-03-28 23:11:14.200000+00:00,POINT (-0.827 43.054)
638680219250,"36 km SE of Altea, Spain",reviewed,0,211,earthquake,3.7, Spain,0.202,38.337,13.3,1990-03-29 03:10:19.250000+00:00,POINT (0.202 38.337)
638929258710,"7 km SSE of Constantina, Spain",reviewed,0,158,earthquake,3.2, Spain,-5.586,37.807,10.0,1990-04-01 00:20:58.710000+00:00,POINT (-5.586 37.807)
638975079810,"8 km E of Orbara, Spain",reviewed,0,62,earthquake,2.0, Spain,-1.141,42.965,10.0,1990-04-01 13:04:39.810000+00:00,POINT (-1.141 42.965)
638997212640,"5 km W of Saint-Étienne-de-Baïgorry, France",reviewed,0,222,earthquake,3.8, France,-1.418,43.18,28.9,1990-04-01 19:13:32.640000+00:00,POINT (-1.418 43.18)
639023773010,"26 km ENE of Al Hoceïma, Morocco",reviewed,0,129,earthquake,2.9, Morocco,-3.68,35.373,10.0,1990-04-02 02:36:13.010000+00:00,POINT (-3.68 35.373)
639136241430,Pyrenees,reviewed,0,15,earthquake,1.0,Pyrenees,-0.62,43.107,10.0,1990-04-03 09:50:41.430000+00:00,POINT (-0.62 43.107)
639467296980,"10 km WSW of Argelès-Gazost, France",reviewed,0,104,earthquake,2.6, France,-0.229,42.978,10.0,1990-04-07 05:48:16.980000+00:00,POINT (-0.229 42.978)
639486822950,"3 km SW of Arette, France",reviewed,0,96,earthquake,2.5, France,-0.745,43.067,5.0,1990-04-07 11:13:42.950000+00:00,POINT (-0.745 43.067)
639623830730,"42 km SSW of Torrenueva, Spain",reviewed,0,138,earthquake,3.0, Spain,-3.648,36.339,5.0,1990-04-09 01:17:10.730000+00:00,POINT (-3.648 36.339)
639792150520,Spain,reviewed,0,129,earthquake,2.9,Spain,-8.069,42.094,5.0,1990-04-11 00:02:30.520000+00:00,POINT (-8.069 42.094)
639960472760,"20 km NNE of Tipasa, Algeria",reviewed,0,340,earthquake,4.7, Algeria,2.492,36.768,13.5,1990-04-12 22:47:52.760000+00:00,POINT (2.492 36.768)
639965947100,"39 km NW of ’Aïn Benian, Algeria",reviewed,0,178,earthquake,3.4, Algeria,2.556,37.008,10.0,1990-04-13 00:19:07.100000+00:00,POINT (2.556 37.008)
640006117090,"5 km NW of Tarascon-sur-Ariège, France",reviewed,0,129,earthquake,2.9, France,1.548,42.876,5.0,1990-04-13 11:28:37.090000+00:00,POINT (1.548 42.876)
640045033460,"43 km E of Martil, Morocco",reviewed,0,271,earthquake,4.2, Morocco,-4.792,35.624,86.3,1990-04-13 22:17:13.460000+00:00,POINT (-4.792 35.624)
640104609640,"7 km ENE of San Roque, Spain",reviewed,0,121,earthquake,2.8, Spain,-5.31,36.238,10.0,1990-04-14 14:50:09.640000+00:00,POINT (-5.31 36.238)
640139966750,"9 km E of Tipasa, Algeria",reviewed,0,199,earthquake,3.6, Algeria,2.551,36.604,10.0,1990-04-15 00:39:26.750000+00:00,POINT (2.551 36.604)
640323113720,"6 km SE of Ramales de la Victoria, Spain",reviewed,0,148,earthquake,3.1, Spain,-3.408,43.216,10.0,1990-04-17 03:31:53.720000+00:00,POINT (-3.408 43.216)
640363568880,"2 km SE of Louvie-Juzon, France",reviewed,0,15,earthquake,1.0, France,-0.403,43.069,10.0,1990-04-17 14:46:08.880000+00:00,POINT (-0.403 43.069)
640431869220,"17 km NNW of Al Hoceïma, Morocco",reviewed,0,259,earthquake,4.1, Morocco,-4.031,35.389,10.0,1990-04-18 09:44:29.220000+00:00,POINT (-4.031 35.389)
640438479940,"8 km NW of Al Hoceïma, Morocco",reviewed,0,158,earthquake,3.2, Morocco,-4.006,35.302,10.0,1990-04-18 11:34:39.940000+00:00,POINT (-4.006 35.302)
640536402240,"10 km SSW of Humilladero, Spain",reviewed,0,104,earthquake,2.6, Spain,-4.729,37.024,10.0,1990-04-19 14:46:42.240000+00:00,POINT (-4.729 37.024)
640910265710,"8 km WSW of Arette, France",reviewed,0,15,earthquake,1.0, France,-0.816,43.065,10.0,1990-04-23 22:37:45.710000+00:00,POINT (-0.816 43.065)
640947067800,"5 km WSW of Ogeu-les-Bains, France",reviewed,0,15,earthquake,1.0, France,-0.565,43.125,10.0,1990-04-24 08:51:07.800000+00:00,POINT (-0.565 43.125)
641221898030,"7 km NE of Cazalla, Spain",reviewed,0,138,earthquake,3.0, Spain,-1.621,37.704,10.0,1990-04-27 13:11:38.030000+00:00,POINT (-1.621 37.704)
641225953130,"18 km SSW of Punta Umbría, Spain",reviewed,0,168,earthquake,3.3, Spain,-7.038,37.03,33.0,1990-04-27 14:19:13.130000+00:00,POINT (-7.038 37.03)
641432070140,"6 km SW of Ogeu-les-Bains, France",reviewed,0,15,earthquake,1.0, France,-0.548,43.102,10.0,1990-04-29 23:34:30.140000+00:00,POINT (-0.548 43.102)
641648669880,"4 km WSW of Espiel, Spain",reviewed,0,121,earthquake,2.8, Spain,-5.059,38.178,10.0,1990-05-02 11:44:29.880000+00:00,POINT (-5.059 38.178)
641666425720,"14 km ESE of Fuengirola, Spain",reviewed,0,246,earthquake,4.0, Spain,-4.483,36.469,101.6,1990-05-02 16:40:25.720000+00:00,POINT (-4.483 36.469)
641725577570,"9 km ENE of Arette, France",reviewed,0,15,earthquake,1.0, France,-0.607,43.112,5.0,1990-05-03 09:06:17.570000+00:00,POINT (-0.607 43.112)
641780373390,"5 km ESE of Arette, France",reviewed,0,15,earthquake,1.0, France,-0.651,43.073,10.0,1990-05-04 00:19:33.390000+00:00,POINT (-0.651 43.073)
641823508750,"5 km N of O Barco de Valdeorras, Spain",reviewed,0,121,earthquake,2.8, Spain,-7.0,42.464,10.0,1990-05-04 12:18:28.750000+00:00,POINT (-7 42.464)
641854850470,"6 km NNW of Chipiona, Spain",reviewed,0,158,earthquake,3.2, Spain,-6.453,36.797,10.0,1990-05-04 21:00:50.470000+00:00,POINT (-6.453 36.797)
642235029420,"4 km ESE of Dílar, Spain",reviewed,0,138,earthquake,3.0, Spain,-3.559,37.06,10.0,1990-05-09 06:37:09.420000+00:00,POINT (-3.559 37.06)
642368942290,"69 km W of Gafanha da Encarnação, Portugal",reviewed,0,188,earthquake,3.5, Portugal,-9.538,40.728,10.0,1990-05-10 19:49:02.290000+00:00,POINT (-9.538 40.728)
642608050000,Strait of Gibraltar,reviewed,0,96,earthquake,2.5,Strait of Gibraltar,-5.707,36.498,5.0,1990-05-13 14:14:10+00:00,POINT (-5.707 36.498)
642682862930,"5 km N of A Rúa, Spain",reviewed,0,112,earthquake,2.7, Spain,-7.097,42.452,5.0,1990-05-14 11:01:02.930000+00:00,POINT (-7.097 42.452)
642816982650,"11 km WSW of Arette, France",reviewed,0,15,earthquake,1.0, France,-0.843,43.054,10.0,1990-05-16 00:16:22.650000+00:00,POINT (-0.843 43.054)
643011784690,"2 km ENE of Alcóntar, Spain",reviewed,0,112,earthquake,2.7, Spain,-2.568,37.342,10.0,1990-05-18 06:23:04.690000+00:00,POINT (-2.568 37.342)
643036915480,"15 km N of Echo, Spain",reviewed,0,44,earthquake,1.7, Spain,-0.725,42.876,5.0,1990-05-18 13:21:55.480000+00:00,POINT (-0.725 42.876)
643074028770,"5 km W of Negreira, Spain",reviewed,0,121,earthquake,2.8, Spain,-8.81,42.896,10.0,1990-05-18 23:40:28.770000+00:00,POINT (-8.81 42.896)
643105673960,"2 km WNW of Capendu, France",reviewed,0,104,earthquake,2.6, France,2.531,43.194,10.0,1990-05-19 08:27:53.960000+00:00,POINT (2.531 43.194)
643368541020,"8 km E of Arette, France",reviewed,0,15,earthquake,1.0, France,-0.62,43.109,5.0,1990-05-22 09:29:01.020000+00:00,POINT (-0.62 43.109)
643375885450,"3 km WSW of Selas, Spain",reviewed,0,104,earthquake,2.6, Spain,-2.138,40.941,10.0,1990-05-22 11:31:25.450000+00:00,POINT (-2.138 40.941)
643411535940,"7 km S of Arles, France",reviewed,0,96,earthquake,2.5, France,4.622,43.608,10.0,1990-05-22 21:25:35.940000+00:00,POINT (4.622 43.608)
643503119050,"33 km NNW of El Amria, Algeria",reviewed,0,234,earthquake,3.9, Algeria,-1.22,35.775,28.8,1990-05-23 22:51:59.050000+00:00,POINT (-1.22 35.775)
644028444170,"7 km SW of Ogeu-les-Bains, France",reviewed,0,81,earthquake,2.3, France,-0.568,43.104,10.0,1990-05-30 00:47:24.170000+00:00,POINT (-0.568 43.104)
644337796880,"1 km SE of Irun, Spain",reviewed,0,138,earthquake,3.0, Spain,-1.772,43.328,10.0,1990-06-02 14:43:16.880000+00:00,POINT (-1.772 43.328)
644722682640,"1 km SW of Benalúa de las Villas, Spain",reviewed,0,112,earthquake,2.7, Spain,-3.69,37.42,10.0,1990-06-07 01:38:02.640000+00:00,POINT (-3.69 37.42)
644753508180,"4 km WNW of Moclín, Spain",reviewed,0,112,earthquake,2.7, Spain,-3.839,37.353,10.0,1990-06-07 10:11:48.180000+00:00,POINT (-3.839 37.353)
644849687710,"7 km SSE of Frailes, Spain",reviewed,0,121,earthquake,2.8, Spain,-3.802,37.42,10.0,1990-06-08 12:54:47.710000+00:00,POINT (-3.802 37.42)
644892816670,"15 km SSE of Adra, Spain",reviewed,0,129,earthquake,2.9, Spain,-2.963,36.612,10.0,1990-06-09 00:53:36.670000+00:00,POINT (-2.963 36.612)
644899794880,"6 km NW of Colomera, Spain",reviewed,0,121,earthquake,2.8, Spain,-3.765,37.412,10.0,1990-06-09 02:49:54.880000+00:00,POINT (-3.765 37.412)
644944051740,"6 km E of Frailes, Spain",reviewed,0,138,earthquake,3.0, Spain,-3.761,37.487,10.0,1990-06-09 15:07:31.740000+00:00,POINT (-3.761 37.487)
645066682880,"11 km W of Saint-Lary-Soulan, France",reviewed,0,112,earthquake,2.7, France,0.18,42.808,10.0,1990-06-11 01:11:22.880000+00:00,POINT (0.18 42.808)
645188509010,"4 km WNW of El Ronquillo, Spain",reviewed,0,112,earthquake,2.7, Spain,-6.226,37.74,10.0,1990-06-12 11:01:49.010000+00:00,POINT (-6.226 37.74)
645189179520,"2 km ENE of Castillo de Locubín, Spain",reviewed,0,121,earthquake,2.8, Spain,-3.92,37.536,5.0,1990-06-12 11:12:59.520000+00:00,POINT (-3.92 37.536)
645216536070,"1 km E of Gan, France",reviewed,0,271,earthquake,4.2, France,-0.367,43.23,11.9,1990-06-12 18:48:56.070000+00:00,POINT (-0.367 43.23)
645233356010,"8 km E of Louvie-Juzon, France",reviewed,0,15,earthquake,1.0, France,-0.321,43.078,10.0,1990-06-12 23:29:16.010000+00:00,POINT (-0.321 43.078)
645371710490,"7 km WNW of Argelès-Gazost, France",reviewed,0,15,earthquake,1.0, France,-0.192,43.025,10.0,1990-06-14 13:55:10.490000+00:00,POINT (-0.192 43.025)
645424971990,"2 km E of Bellver de Cerdanya, Spain",reviewed,0,178,earthquake,3.4, Spain,1.809,42.366,10.0,1990-06-15 04:42:51.990000+00:00,POINT (1.809 42.366)
645446239550,"7 km ENE of Louvie-Juzon, France",reviewed,0,158,earthquake,3.2, France,-0.344,43.119,10.0,1990-06-15 10:37:19.550000+00:00,POINT (-0.344 43.119)
645477884700,"6 km ESE of Louvie-Juzon, France",reviewed,0,148,earthquake,3.1, France,-0.342,43.074,13.8,1990-06-15 19:24:44.700000+00:00,POINT (-0.342 43.074)
645777661490,"17 km ESE of Torre de la Horadada, Spain",reviewed,0,121,earthquake,2.8, Spain,-0.571,37.828,5.0,1990-06-19 06:41:01.490000+00:00,POINT (-0.571 37.828)
645832091180,"4 km NE of Berriobeiti, Spain",reviewed,0,222,earthquake,3.8, Spain,-1.665,42.882,27.9,1990-06-19 21:48:11.180000+00:00,POINT (-1.665 42.882)
645869123610,"17 km ENE of Al Hoceïma, Morocco",reviewed,0,199,earthquake,3.6, Morocco,-3.764,35.314,10.0,1990-06-20 08:05:23.610000+00:00,POINT (-3.764 35.314)
646120957930,"4 km SSW of Arjona, Spain",reviewed,0,121,earthquake,2.8, Spain,-4.083,37.899,10.0,1990-06-23 06:02:37.930000+00:00,POINT (-4.083 37.899)
646152569480,"7 km SE of Montederramo, Spain",reviewed,0,112,earthquake,2.7, Spain,-7.44,42.221,10.0,1990-06-23 14:49:29.480000+00:00,POINT (-7.44 42.221)
646276801560,"20 km N of Lubián, Spain",reviewed,0,104,earthquake,2.6, Spain,-6.907,42.222,10.0,1990-06-25 01:20:01.560000+00:00,POINT (-6.907 42.222)
646295691490,"1 km SSW of Barbazan-Debat, France",reviewed,0,178,earthquake,3.4, France,0.113,43.186,5.0,1990-06-25 06:34:51.490000+00:00,POINT (0.113 43.186)
646365446560,"5 km ENE of Arette, France",reviewed,0,15,earthquake,1.0, France,-0.655,43.111,10.0,1990-06-26 01:57:26.560000+00:00,POINT (-0.655 43.111)
646414392880,"9 km SSW of Ogeu-les-Bains, France",reviewed,0,15,earthquake,1.0, France,-0.548,43.07,10.0,1990-06-26 15:33:12.880000+00:00,POINT (-0.548 43.07)
646477569070,"0 km SE of Jerez de la Frontera, Spain",reviewed,0,112,earthquake,2.7, Spain,-6.128,36.682,10.0,1990-06-27 09:06:09.070000+00:00,POINT (-6.128 36.682)
646540722580,"4 km NNE of Puértolas, Spain",reviewed,0,178,earthquake,3.4, Spain,0.158,42.58,10.0,1990-06-28 02:38:42.580000+00:00,POINT (0.158 42.58)
646874645910,"3 km NNW of Santafé, Spain",reviewed,0,129,earthquake,2.9, Spain,-3.735,37.219,10.0,1990-07-01 23:24:05.910000+00:00,POINT (-3.735 37.219)
647393414860,"3 km NNE of Miraflores de la Sierra, Spain",reviewed,0,168,earthquake,3.3, Spain,-3.746,40.841,8.4,1990-07-07 23:30:14.860000+00:00,POINT (-3.746 40.841)
647598202080,"1 km ESE of Vila Verde, Portugal",reviewed,0,148,earthquake,3.1, Portugal,-9.098,39.15,10.0,1990-07-10 08:23:22.080000+00:00,POINT (-9.098 39.15)
647600351860,"1 km NE of Vila Verde, Portugal",reviewed,0,148,earthquake,3.1, Portugal,-9.107,39.162,10.0,1990-07-10 08:59:11.860000+00:00,POINT (-9.107 39.162)
647656944760,"7 km SW of Pulpí, Spain",reviewed,0,121,earthquake,2.8, Spain,-1.789,37.359,10.0,1990-07-11 00:42:24.760000+00:00,POINT (-1.789 37.359)
647774989710,"1 km SE of La Barthe-de-Neste, France",reviewed,0,112,earthquake,2.7, France,0.397,43.073,10.0,1990-07-12 09:29:49.710000+00:00,POINT (0.397 43.073)
647865671350,"18 km NW of El Ronquillo, Spain",reviewed,0,112,earthquake,2.7, Spain,-6.291,37.861,10.0,1990-07-13 10:41:11.350000+00:00,POINT (-6.291 37.861)
648328548450,"4 km NNE of Jerez de la Frontera, Spain",reviewed,0,211,earthquake,3.7, Spain,-6.119,36.722,10.0,1990-07-18 19:15:48.450000+00:00,POINT (-6.119 36.722)
648364237850,Strait of Gibraltar,reviewed,0,112,earthquake,2.7,Strait of Gibraltar,-6.136,36.636,10.0,1990-07-19 05:10:37.850000+00:00,POINT (-6.136 36.636)
648494627310,"6 km SW of Ogeu-les-Bains, France",reviewed,0,15,earthquake,1.0, France,-0.559,43.107,10.0,1990-07-20 17:23:47.310000+00:00,POINT (-0.559 43.107)
648617075640,"2 km SW of Bosdarros, France",reviewed,0,211,earthquake,3.7, France,-0.385,43.196,13.3,1990-07-22 03:24:35.640000+00:00,POINT (-0.385 43.196)
648617706080,"4 km W of Nay, France",reviewed,0,148,earthquake,3.1, France,-0.32,43.176,10.0,1990-07-22 03:35:06.080000+00:00,POINT (-0.32 43.176)
648620787380,"5 km E of Louvie-Juzon, France",reviewed,0,104,earthquake,2.6, France,-0.354,43.089,10.0,1990-07-22 04:26:27.380000+00:00,POINT (-0.354 43.089)
648745884190,"7 km NE of Laruns, France",reviewed,0,121,earthquake,2.8, France,-0.357,43.027,10.0,1990-07-23 15:11:24.190000+00:00,POINT (-0.357 43.027)
648851333640,"1 km ESE of Oloron-Sainte-Marie, France",reviewed,0,199,earthquake,3.6, France,-0.591,43.186,9.9,1990-07-24 20:28:53.640000+00:00,POINT (-0.591 43.186)
648915236070,"10 km ENE of Laruns, France",reviewed,0,15,earthquake,1.0, France,-0.308,43.016,10.0,1990-07-25 14:13:56.070000+00:00,POINT (-0.308 43.016)
648921558830,"3 km NE of Ogeu-les-Bains, France",reviewed,0,15,earthquake,1.0, France,-0.477,43.167,10.0,1990-07-25 15:59:18.830000+00:00,POINT (-0.477 43.167)
648937142770,"9 km SE of Arette, France",reviewed,0,104,earthquake,2.6, France,-0.635,43.034,10.0,1990-07-25 20:19:02.770000+00:00,POINT (-0.635 43.034)
648976752650,"1 km S of Lama, Spain",reviewed,0,129,earthquake,2.9, Spain,-8.436,42.385,10.0,1990-07-26 07:19:12.650000+00:00,POINT (-8.436 42.385)
649009559020,"2 km E of Javier, Spain",reviewed,0,129,earthquake,2.9, Spain,-1.176,42.594,10.0,1990-07-26 16:25:59.020000+00:00,POINT (-1.176 42.594)
649009775150,"6 km NNW of Yesa, Spain",reviewed,0,211,earthquake,3.7, Spain,-1.229,42.676,31.7,1990-07-26 16:29:35.150000+00:00,POINT (-1.229 42.676)
649015994290,"6 km E of Kolea, Algeria",reviewed,0,211,earthquake,3.7, Algeria,2.839,36.647,10.0,1990-07-26 18:13:14.290000+00:00,POINT (2.839 36.647)
649031825250,"10 km N of Espejo, Spain",reviewed,0,148,earthquake,3.1, Spain,-4.57,37.769,10.0,1990-07-26 22:37:05.250000+00:00,POINT (-4.57 37.769)
649032684170,"8 km SW of Ogeu-les-Bains, France",reviewed,0,15,earthquake,1.0, France,-0.583,43.092,10.0,1990-07-26 22:51:24.170000+00:00,POINT (-0.583 43.092)
649080664970,"12 km NW of El Ronquillo, Spain",reviewed,0,112,earthquake,2.7, Spain,-6.259,37.819,10.0,1990-07-27 12:11:04.970000+00:00,POINT (-6.259 37.819)
649173405570,"3 km S of Souma, Algeria",reviewed,0,188,earthquake,3.5, Algeria,2.912,36.489,10.0,1990-07-28 13:56:45.570000+00:00,POINT (2.912 36.489)
649711623440,"7 km W of Laruns, France",reviewed,0,15,earthquake,1.0, France,-0.515,42.999,10.0,1990-08-03 19:27:03.440000+00:00,POINT (-0.515 42.999)
649849456770,"0 km S of Arudy, France",reviewed,0,15,earthquake,1.0, France,-0.433,43.098,10.0,1990-08-05 09:44:16.770000+00:00,POINT (-0.433 43.098)
649891946000,"14 km SSW of Sort, Spain",reviewed,0,199,earthquake,3.6, Spain,1.067,42.291,9.9,1990-08-05 21:32:26+00:00,POINT (1.067 42.291)
650226404180,"9 km N of Tipasa, Algeria",reviewed,0,211,earthquake,3.7, Algeria,2.455,36.679,10.0,1990-08-09 18:26:44.180000+00:00,POINT (2.455 36.679)
650448502490,"5 km SSW of Quissac, France",reviewed,0,112,earthquake,2.7, France,3.987,43.861,10.0,1990-08-12 08:08:22.490000+00:00,POINT (3.987 43.861)
650461310310,"29 km SE of Le Cap d'Agde, France",reviewed,0,121,earthquake,2.8, France,3.796,43.108,10.0,1990-08-12 11:41:50.310000+00:00,POINT (3.796 43.108)
650511944740,"13 km ENE of Targuist, Morocco",reviewed,0,188,earthquake,3.5, Morocco,-4.196,35.001,10.0,1990-08-13 01:45:44.740000+00:00,POINT (-4.196 35.001)
650574371180,"9 km SSW of Ogeu-les-Bains, France",reviewed,0,104,earthquake,2.6, France,-0.555,43.066,10.0,1990-08-13 19:06:11.180000+00:00,POINT (-0.555 43.066)
650574765580,"2 km E of Oloron-Sainte-Marie, France",reviewed,0,188,earthquake,3.5, France,-0.585,43.192,14.0,1990-08-13 19:12:45.580000+00:00,POINT (-0.585 43.192)
650649288290,"54 km S of El Ejido, Spain",reviewed,0,178,earthquake,3.4, Spain,-2.784,36.284,10.0,1990-08-14 15:54:48.290000+00:00,POINT (-2.784 36.284)
650739404710,"48 km S of Adra, Spain",reviewed,0,246,earthquake,4.0, Spain,-2.922,36.323,10.0,1990-08-15 16:56:44.710000+00:00,POINT (-2.922 36.323)
650807865650,"58 km S of Roquetas de Mar, Spain",reviewed,0,158,earthquake,3.2, Spain,-2.734,36.25,10.0,1990-08-16 11:57:45.650000+00:00,POINT (-2.734 36.25)
651108571570,"2 km SSE of Zuheros, Spain",reviewed,0,129,earthquake,2.9, Spain,-4.309,37.524,10.0,1990-08-19 23:29:31.570000+00:00,POINT (-4.309 37.524)
651154951720,"27 km SE of Alcocéber, Spain",reviewed,0,178,earthquake,3.4, Spain,0.475,40.056,10.0,1990-08-20 12:22:31.720000+00:00,POINT (0.475 40.056)
651330748230,"11 km SSW of Ogeu-les-Bains, France",reviewed,0,15,earthquake,1.0, France,-0.574,43.055,10.0,1990-08-22 13:12:28.230000+00:00,POINT (-0.574 43.055)
651659373810,"1 km N of Montaut, France",reviewed,0,15,earthquake,1.0, France,-0.199,43.147,33.0,1990-08-26 08:29:33.810000+00:00,POINT (-0.199 43.147)
651716318600,"67 km SSE of Olhão, Portugal",reviewed,0,129,earthquake,2.9, Portugal,-7.566,36.46,10.0,1990-08-27 00:18:38.600000+00:00,POINT (-7.566 36.46)
651762514200,"4 km ESE of Bornos, Spain",reviewed,0,89,earthquake,2.4, Spain,-5.695,36.796,10.0,1990-08-27 13:08:34.200000+00:00,POINT (-5.695 36.796)
651955124730,"6 km SE of Alcalá de los Gazules, Spain",reviewed,0,89,earthquake,2.4, Spain,-5.681,36.417,10.0,1990-08-29 18:38:44.730000+00:00,POINT (-5.681 36.417)
652170740110,"3 km E of Ogeu-les-Bains, France",reviewed,0,104,earthquake,2.6, France,-0.465,43.143,10.0,1990-09-01 06:32:20.110000+00:00,POINT (-0.465 43.143)
652172236070,"3 km ESE of Ogeu-les-Bains, France",reviewed,0,96,earthquake,2.5, France,-0.468,43.139,10.0,1990-09-01 06:57:16.070000+00:00,POINT (-0.468 43.139)
652238816260,"6 km ENE of Montederramo, Spain",reviewed,0,74,earthquake,2.2, Spain,-7.424,42.294,10.0,1990-09-02 01:26:56.260000+00:00,POINT (-7.424 42.294)
652475807370,"8 km N of Arthez-de-Béarn, France",reviewed,0,188,earthquake,3.5, France,-0.61,43.538,10.0,1990-09-04 19:16:47.370000+00:00,POINT (-0.61 43.538)
652603450560,"7 km S of Ramales de la Victoria, Spain",reviewed,0,158,earthquake,3.2, Spain,-3.477,43.187,10.0,1990-09-06 06:44:10.560000+00:00,POINT (-3.477 43.187)
653139205460,"7 km WNW of El Ronquillo, Spain",reviewed,0,81,earthquake,2.3, Spain,-6.247,37.761,10.0,1990-09-12 11:33:25.460000+00:00,POINT (-6.247 37.761)
653285430000,"8 km SSE of Las Cabezas de San Juan, Spain",reviewed,0,62,earthquake,2.0, Spain,-5.9,36.917,10.0,1990-09-14 04:10:30+00:00,POINT (-5.9 36.917)
653324838830,"5 km ESE of Málaga, Spain",reviewed,0,121,earthquake,2.8, Spain,-4.366,36.705,10.0,1990-09-14 15:07:18.830000+00:00,POINT (-4.366 36.705)
653461672940,"1 km ESE of Igon, France",reviewed,0,138,earthquake,3.0, France,-0.209,43.156,10.0,1990-09-16 05:07:52.940000+00:00,POINT (-0.209 43.156)
653474626390,"2 km WSW of Maureilhan, France",reviewed,0,81,earthquake,2.3, France,3.092,43.35,10.0,1990-09-16 08:43:46.390000+00:00,POINT (3.092 43.35)
653499848380,"12 km SSW of Cehegín, Spain",reviewed,0,96,earthquake,2.5, Spain,-1.853,37.99,10.0,1990-09-16 15:44:08.380000+00:00,POINT (-1.853 37.99)
653532908780,"1 km N of Cehegín, Spain",reviewed,0,211,earthquake,3.7, Spain,-1.799,38.107,10.0,1990-09-17 00:55:08.780000+00:00,POINT (-1.799 38.107)
653577512030,Spain,reviewed,0,104,earthquake,2.6,Spain,-1.767,41.449,10.0,1990-09-17 13:18:32.030000+00:00,POINT (-1.767 41.449)
653746751350,"15 km WSW of Aracena, Spain",reviewed,0,96,earthquake,2.5, Spain,-6.718,37.828,10.0,1990-09-19 12:19:11.350000+00:00,POINT (-6.718 37.828)
653793572060,"4 km SE of Arette, France",reviewed,0,15,earthquake,1.0, France,-0.674,43.066,10.0,1990-09-20 01:19:32.060000+00:00,POINT (-0.674 43.066)
653903711950,"11 km WNW of Cauterets, France",reviewed,0,138,earthquake,3.0, France,-0.25,42.91,10.0,1990-09-21 07:55:11.950000+00:00,POINT (-0.25 42.91)
654331644670,"6 km NE of Arthez-de-Béarn, France",reviewed,0,158,earthquake,3.2, France,-0.56,43.505,10.0,1990-09-26 06:47:24.670000+00:00,POINT (-0.56 43.505)
654487678510,"68 km S of Fuengirola, Spain",reviewed,0,246,earthquake,4.0, Spain,-4.478,35.932,110.8,1990-09-28 02:07:58.510000+00:00,POINT (-4.478 35.932)
654493901570,"7 km WSW of Loja, Spain",reviewed,0,112,earthquake,2.7, Spain,-4.227,37.137,10.0,1990-09-28 03:51:41.570000+00:00,POINT (-4.227 37.137)
654509117380,"7 km E of Arette, France",reviewed,0,19,earthquake,1.1, France,-0.629,43.088,10.0,1990-09-28 08:05:17.380000+00:00,POINT (-0.629 43.088)
654718114020,"2 km NW of Monein, France",reviewed,0,96,earthquake,2.5, France,-0.602,43.334,10.0,1990-09-30 18:08:34.020000+00:00,POINT (-0.602 43.334)
654745907900,"4 km SSW of Adra, Spain",reviewed,0,138,earthquake,3.0, Spain,-3.037,36.708,10.0,1990-10-01 01:51:47.900000+00:00,POINT (-3.037 36.708)
654826963300,"1 km WSW of Arudy, France",reviewed,0,89,earthquake,2.4, France,-0.449,43.099,10.0,1990-10-02 00:22:43.300000+00:00,POINT (-0.449 43.099)
654829537980,"0 km ENE of Arudy, France",reviewed,0,15,earthquake,1.0, France,-0.431,43.107,10.0,1990-10-02 01:05:37.980000+00:00,POINT (-0.431 43.107)
654866715440,"14 km SSE of Cabeza la Vaca, Spain",reviewed,0,104,earthquake,2.6, Spain,-6.344,37.969,10.0,1990-10-02 11:25:15.440000+00:00,POINT (-6.344 37.969)
654881402940,"29 km SE of Santa Pola, Spain",reviewed,0,112,earthquake,2.7, Spain,-0.311,38.021,10.0,1990-10-02 15:30:02.940000+00:00,POINT (-0.311 38.021)
654900319450,"9 km NNE of Arthez-de-Béarn, France",reviewed,0,188,earthquake,3.5, France,-0.583,43.548,17.7,1990-10-02 20:45:19.450000+00:00,POINT (-0.583 43.548)
654976968030,"3 km E of Laruns, France",reviewed,0,129,earthquake,2.9, France,-0.382,42.994,10.0,1990-10-03 18:02:48.030000+00:00,POINT (-0.382 42.994)
655190310060,"8 km NNW of Sarria, Spain",reviewed,0,112,earthquake,2.7, Spain,-7.45,42.857,10.0,1990-10-06 05:18:30.060000+00:00,POINT (-7.45 42.857)
655297508960,"11 km NNW of Urda, Spain",reviewed,0,148,earthquake,3.1, Spain,-3.787,39.496,10.0,1990-10-07 11:05:08.960000+00:00,POINT (-3.787 39.496)
655325181010,"7 km SE of Amou, France",reviewed,0,62,earthquake,2.0, France,-0.667,43.552,5.0,1990-10-07 18:46:21.010000+00:00,POINT (-0.667 43.552)
655434987970,"2 km SE of Mourenx, France",reviewed,0,104,earthquake,2.6, France,-0.612,43.356,10.0,1990-10-09 01:16:27.970000+00:00,POINT (-0.612 43.356)
655454036150,"1 km E of Lagor, France",reviewed,0,62,earthquake,2.0, France,-0.63,43.395,10.0,1990-10-09 06:33:56.150000+00:00,POINT (-0.63 43.395)
655489125540,"4 km NNE of Arudy, France",reviewed,0,15,earthquake,1.0, France,-0.408,43.141,10.0,1990-10-09 16:18:45.540000+00:00,POINT (-0.408 43.141)
655553975990,"9 km E of Arette, France",reviewed,0,56,earthquake,1.9, France,-0.606,43.099,10.0,1990-10-10 10:19:35.990000+00:00,POINT (-0.606 43.099)
655800592920,"6 km NNE of Arudy, France",reviewed,0,112,earthquake,2.7, France,-0.392,43.156,10.0,1990-10-13 06:49:52.920000+00:00,POINT (-0.392 43.156)
655895184300,"8 km ENE of Arette, France",reviewed,0,22,earthquake,1.2, France,-0.618,43.111,10.0,1990-10-14 09:06:24.300000+00:00,POINT (-0.618 43.111)
655920171920,"1 km SW of Monachil, Spain",reviewed,0,74,earthquake,2.2, Spain,-3.547,37.122,10.0,1990-10-14 16:02:51.920000+00:00,POINT (-3.547 37.122)
655934028930,"8 km SW of Saint-Pé-de-Bigorre, France",reviewed,0,104,earthquake,2.6, France,-0.222,43.042,10.0,1990-10-14 19:53:48.930000+00:00,POINT (-0.222 43.042)
656087130720,"4 km SSE of Ossun, France",reviewed,0,259,earthquake,4.1, France,-0.006,43.149,28.3,1990-10-16 14:25:30.720000+00:00,POINT (-0.006 43.149)
656111261130,"4 km S of Juillan, France",reviewed,0,168,earthquake,3.3, France,0.024,43.161,10.0,1990-10-16 21:07:41.130000+00:00,POINT (0.024 43.161)
656197950860,"3 km NE of Arette, France",reviewed,0,15,earthquake,1.0, France,-0.687,43.12,10.0,1990-10-17 21:12:30.860000+00:00,POINT (-0.687 43.12)
656201207900,"11 km N of San José, Spain",reviewed,0,81,earthquake,2.3, Spain,-2.102,36.862,10.0,1990-10-17 22:06:47.900000+00:00,POINT (-2.102 36.862)
656212792290,"5 km NNW of La Seu d'Urgell, Spain",reviewed,0,168,earthquake,3.3, Spain,1.446,42.406,10.0,1990-10-18 01:19:52.290000+00:00,POINT (1.446 42.406)
656259631000,"7 km NNW of Villaviciosa de Córdoba, Spain",reviewed,0,62,earthquake,2.0, Spain,-5.051,38.141,10.0,1990-10-18 14:20:31+00:00,POINT (-5.051 38.141)
656557957650,"3 km NNE of Quintanaélez, Spain",reviewed,0,121,earthquake,2.8, Spain,-3.279,42.694,10.0,1990-10-22 01:12:37.650000+00:00,POINT (-3.279 42.694)
656629856090,"4 km SW of Mourenx, France",reviewed,0,96,earthquake,2.5, France,-0.666,43.342,10.0,1990-10-22 21:10:56.090000+00:00,POINT (-0.666 43.342)
656818636720,"9 km W of Bni Bouayach, Morocco",reviewed,0,158,earthquake,3.2, Morocco,-3.947,35.098,10.0,1990-10-25 01:37:16.720000+00:00,POINT (-3.947 35.098)
656854077810,"7 km SW of Benalup-Casas Viejas, Spain",reviewed,0,74,earthquake,2.2, Spain,-5.874,36.304,10.0,1990-10-25 11:27:57.810000+00:00,POINT (-5.874 36.304)
656953907070,"17 km SW of Mauléon-Licharre, France",reviewed,0,15,earthquake,1.0, France,-1.013,43.095,10.0,1990-10-26 15:11:47.070000+00:00,POINT (-1.013 43.095)
657071966780,"99 km SE of Begur, Spain",reviewed,0,138,earthquake,3.0, Spain,4.178,41.418,33.0,1990-10-27 23:59:26.780000+00:00,POINT (4.178 41.418)
657429398650,"77 km SSW of Sagres, Portugal",reviewed,0,199,earthquake,3.6, Portugal,-9.225,36.349,16.5,1990-11-01 03:16:38.650000+00:00,POINT (-9.225 36.349)
657581125390,"4 km NNW of Ogeu-les-Bains, France",reviewed,0,259,earthquake,4.1, France,-0.532,43.187,10.0,1990-11-02 21:25:25.390000+00:00,POINT (-0.532 43.187)
657640403630,"0 km NW of Jumilla, Spain",reviewed,0,178,earthquake,3.4, Spain,-1.329,38.482,10.0,1990-11-03 13:53:23.630000+00:00,POINT (-1.329 38.482)
657835776690,"86 km SSW of Faro, Portugal",reviewed,0,158,earthquake,3.2, Portugal,-8.25,36.283,10.0,1990-11-05 20:09:36.690000+00:00,POINT (-8.25 36.283)
657875274150,"3 km S of Hagetmau, France",reviewed,0,158,earthquake,3.2, France,-0.588,43.628,10.0,1990-11-06 07:07:54.150000+00:00,POINT (-0.588 43.628)
657962702170,"2 km SSW of Otura, Spain",reviewed,0,246,earthquake,4.0, Spain,-3.65,37.068,22.5,1990-11-07 07:25:02.170000+00:00,POINT (-3.65 37.068)
658200115230,"3 km NE of Padul, Spain",reviewed,0,74,earthquake,2.2, Spain,-3.599,37.042,10.0,1990-11-10 01:21:55.230000+00:00,POINT (-3.599 37.042)
658201955290,"15 km S of Puente de Domingo Flórez, Spain",reviewed,0,112,earthquake,2.7, Spain,-6.829,42.276,10.0,1990-11-10 01:52:35.290000+00:00,POINT (-6.829 42.276)
658212928400,"7 km NNE of Arthez-de-Béarn, France",reviewed,0,188,earthquake,3.5, France,-0.566,43.522,10.0,1990-11-10 04:55:28.400000+00:00,POINT (-0.566 43.522)
658336010050,"13 km SSW of Sort, Spain",reviewed,0,168,earthquake,3.3, Spain,1.087,42.296,10.0,1990-11-11 15:06:50.050000+00:00,POINT (1.087 42.296)
658614613650,"9 km NNE of San Martín de Elines, Spain",reviewed,0,211,earthquake,3.7, Spain,-3.823,42.91,10.0,1990-11-14 20:30:13.650000+00:00,POINT (-3.823 42.91)
658652331910,"5 km SW of Caudete, Spain",reviewed,0,112,earthquake,2.7, Spain,-1.035,38.67,10.0,1990-11-15 06:58:51.910000+00:00,POINT (-1.035 38.67)
659248391210,"4 km E of Lobios, Spain",reviewed,0,199,earthquake,3.6, Spain,-7.476,42.402,10.0,1990-11-22 04:33:11.210000+00:00,POINT (-7.476 42.402)
659603432270,"9 km NNW of Illora, Spain",reviewed,0,112,earthquake,2.7, Spain,-3.912,37.371,10.0,1990-11-26 07:10:32.270000+00:00,POINT (-3.912 37.371)
659627753500,"3 km WNW of Monein, France",reviewed,0,129,earthquake,2.9, France,-0.621,43.331,10.0,1990-11-26 13:55:53.500000+00:00,POINT (-0.621 43.331)
660001931700,"10 km SSE of Socuéllamos, Spain",reviewed,0,112,earthquake,2.7, Spain,-2.734,39.204,10.0,1990-11-30 21:52:11.700000+00:00,POINT (-2.734 39.204)
660079140360,"2 km NE of El Coronil, Spain",reviewed,0,56,earthquake,1.9, Spain,-5.613,37.091,10.0,1990-12-01 19:19:00.360000+00:00,POINT (-5.613 37.091)
660212830270,"14 km SSE of Socuéllamos, Spain",reviewed,0,121,earthquake,2.8, Spain,-2.759,39.158,10.0,1990-12-03 08:27:10.270000+00:00,POINT (-2.759 39.158)
660843686730,Spain,reviewed,0,104,earthquake,2.6,Spain,-2.079,37.324,10.0,1990-12-10 15:41:26.730000+00:00,POINT (-2.079 37.324)
661158815140,"4 km NNE of Arette, France",reviewed,0,35,earthquake,1.5, France,-0.698,43.13,10.0,1990-12-14 07:13:35.140000+00:00,POINT (-0.698 43.13)
661269777540,"6 km E of Arette, France",reviewed,0,74,earthquake,2.2, France,-0.636,43.094,10.0,1990-12-15 14:02:57.540000+00:00,POINT (-0.636 43.094)
661366420010,"7 km SW of Ogeu-les-Bains, France",reviewed,0,15,earthquake,1.0, France,-0.569,43.103,10.0,1990-12-16 16:53:40.010000+00:00,POINT (-0.569 43.103)
661429962460,"8 km E of Arette, France",reviewed,0,15,earthquake,1.0, France,-0.61,43.099,10.0,1990-12-17 10:32:42.460000+00:00,POINT (-0.61 43.099)
662056547700,"1 km ESE of Louvie-Juzon, France",reviewed,0,15,earthquake,1.0, France,-0.401,43.081,10.0,1990-12-24 16:35:47.700000+00:00,POINT (-0.401 43.081)
662155184110,"5 km SW of Archidona, Spain",reviewed,0,68,earthquake,2.1, Spain,-4.434,37.067,10.0,1990-12-25 19:59:44.110000+00:00,POINT (-4.434 37.067)
662858635190,"4 km W of Alhama de Granada, Spain",reviewed,0,89,earthquake,2.4, Spain,-4.037,37.003,10.0,1991-01-02 23:23:55.190000+00:00,POINT (-4.037 37.003)
662889199190,"6 km NNE of Antequera, Spain",reviewed,0,96,earthquake,2.5, Spain,-4.521,37.072,10.0,1991-01-03 07:53:19.190000+00:00,POINT (-4.521 37.072)
662921305920,"7 km SW of Ogeu-les-Bains, France",reviewed,0,15,earthquake,1.0, France,-0.572,43.095,10.0,1991-01-03 16:48:25.920000+00:00,POINT (-0.572 43.095)
663107210750,"0 km W of Pouzac, France",reviewed,0,148,earthquake,3.1, France,0.126,43.086,10.0,1991-01-05 20:26:50.750000+00:00,POINT (0.126 43.086)
663223652970,"11 km SSE of Arette, France",reviewed,0,15,earthquake,1.0, France,-0.649,43.008,10.0,1991-01-07 04:47:32.970000+00:00,POINT (-0.649 43.008)
663514550020,"1 km SSE of Maracena, Spain",reviewed,0,74,earthquake,2.2, Spain,-3.626,37.194,10.0,1991-01-10 13:35:50.020000+00:00,POINT (-3.626 37.194)
663834725870,"4 km E of Arette, France",reviewed,0,62,earthquake,2.0, France,-0.657,43.093,10.0,1991-01-14 06:32:05.870000+00:00,POINT (-0.657 43.093)
663937174000,"8 km ESE of Arette, France",reviewed,0,81,earthquake,2.3, France,-0.623,43.07,10.0,1991-01-15 10:59:34+00:00,POINT (-0.623 43.07)
664175527780,"2 km SSE of Arette, France",reviewed,0,15,earthquake,1.0, France,-0.707,43.077,10.0,1991-01-18 05:12:07.780000+00:00,POINT (-0.707 43.077)
664184683720,"2 km N of Arthez-de-Béarn, France",reviewed,0,62,earthquake,2.0, France,-0.618,43.49,10.0,1991-01-18 07:44:43.720000+00:00,POINT (-0.618 43.49)
664304331720,"11 km ENE of Luz-Saint-Sauveur, France",reviewed,0,96,earthquake,2.5, France,0.122,42.92,5.0,1991-01-19 16:58:51.720000+00:00,POINT (0.122 42.92)
664474202080,"9 km NW of Urda, Spain",reviewed,0,112,earthquake,2.7, Spain,-3.781,39.484,10.0,1991-01-21 16:10:02.080000+00:00,POINT (-3.781 39.484)
664512575120,"1 km NNE of Arthez-de-Béarn, France",reviewed,0,178,earthquake,3.4, France,-0.61,43.478,10.0,1991-01-22 02:49:35.120000+00:00,POINT (-0.61 43.478)
664594257160,"3 km ESE of Saint-Palais, France",reviewed,0,74,earthquake,2.2, France,-0.996,43.319,10.0,1991-01-23 01:30:57.160000+00:00,POINT (-0.996 43.319)
665278744550,"2 km WSW of Ogeu-les-Bains, France",reviewed,0,89,earthquake,2.4, France,-0.537,43.135,10.0,1991-01-30 23:39:04.550000+00:00,POINT (-0.537 43.135)
665595847360,"21 km NNW of Larache, Morocco",reviewed,0,222,earthquake,3.8, Morocco,-6.257,35.369,90.0,1991-02-03 15:44:07.360000+00:00,POINT (-6.257 35.369)
665625539980,"106 km N of ’Aïn Benian, Algeria",reviewed,0,188,earthquake,3.5, Algeria,3.006,37.764,10.0,1991-02-03 23:58:59.980000+00:00,POINT (3.006 37.764)
665711924720,"5 km E of Larbaâ, Algeria",reviewed,0,199,earthquake,3.6, Algeria,3.214,36.562,10.0,1991-02-04 23:58:44.720000+00:00,POINT (3.214 36.562)
665927779110,"7 km S of Arette, France",reviewed,0,15,earthquake,1.0, France,-0.703,43.025,10.0,1991-02-07 11:56:19.110000+00:00,POINT (-0.703 43.025)
665928953210,"8 km ENE of Arette, France",reviewed,0,15,earthquake,1.0, France,-0.62,43.11,10.0,1991-02-07 12:15:53.210000+00:00,POINT (-0.62 43.11)
666038154100,"4 km NNE of Navarrenx, France",reviewed,0,112,earthquake,2.7, France,-0.735,43.353,10.0,1991-02-08 18:35:54.100000+00:00,POINT (-0.735 43.353)
666071501320,"4 km NW of Moraleda de Zafayona, Spain",reviewed,0,68,earthquake,2.1, Spain,-3.993,37.199,10.0,1991-02-09 03:51:41.320000+00:00,POINT (-3.993 37.199)
666110042400,"81 km ENE of Cadaqués, Spain",reviewed,0,138,earthquake,3.0, Spain,4.121,42.68,10.0,1991-02-09 14:34:02.400000+00:00,POINT (4.121 42.68)
666132391130,"7 km NNE of Cessenon-sur-Orb, France",reviewed,0,96,earthquake,2.5, France,3.079,43.51,10.0,1991-02-09 20:46:31.130000+00:00,POINT (3.079 43.51)
666132422560,"0 km NNE of La Tour-sur-Orb, France",reviewed,0,112,earthquake,2.7, France,3.15,43.655,10.0,1991-02-09 20:47:02.560000+00:00,POINT (3.15 43.655)
666203828630,"2 km ESE of Oloron-Sainte-Marie, France",reviewed,0,121,earthquake,2.8, France,-0.579,43.183,10.0,1991-02-10 16:37:08.630000+00:00,POINT (-0.579 43.183)
666268990790,Spain,reviewed,0,104,earthquake,2.6,Spain,-0.633,38.624,10.0,1991-02-11 10:43:10.790000+00:00,POINT (-0.633 38.624)
666290011230,"7 km SW of Montellano, Spain",reviewed,0,74,earthquake,2.2, Spain,-5.627,36.946,10.0,1991-02-11 16:33:31.230000+00:00,POINT (-5.627 36.946)
666359709370,"8 km SSW of Ogeu-les-Bains, France",reviewed,0,15,earthquake,1.0, France,-0.545,43.081,10.0,1991-02-12 11:55:09.370000+00:00,POINT (-0.545 43.081)
666360955640,"12 km SE of Benalup-Casas Viejas, Spain",reviewed,0,148,earthquake,3.1, Spain,-5.696,36.277,10.0,1991-02-12 12:15:55.640000+00:00,POINT (-5.696 36.277)
666728892560,"6 km SW of Ogeu-les-Bains, France",reviewed,0,15,earthquake,1.0, France,-0.568,43.108,5.0,1991-02-16 18:28:12.560000+00:00,POINT (-0.568 43.108)
666926112530,"0 km ESE of Ledeuix, France",reviewed,0,96,earthquake,2.5, France,-0.619,43.216,10.0,1991-02-19 01:15:12.530000+00:00,POINT (-0.619 43.216)
666951138360,"7 km SW of Becerreá, Spain",reviewed,0,104,earthquake,2.6, Spain,-7.233,42.815,10.0,1991-02-19 08:12:18.360000+00:00,POINT (-7.233 42.815)
667139543190,"3 km ENE of Arette, France",reviewed,0,62,earthquake,2.0, France,-0.68,43.11,10.0,1991-02-21 12:32:23.190000+00:00,POINT (-0.68 43.11)
667170408210,"12 km W of Guadalaviar, Spain",reviewed,0,104,earthquake,2.6, Spain,-1.871,40.393,10.0,1991-02-21 21:06:48.210000+00:00,POINT (-1.871 40.393)
667277779650,"4 km WNW of Tomelloso, Spain",reviewed,0,62,earthquake,2.0, Spain,-3.063,39.179,10.0,1991-02-23 02:56:19.650000+00:00,POINT (-3.063 39.179)
667322904530,"1 km WSW of Mexilhoeira Grande, Portugal",reviewed,0,178,earthquake,3.4, Portugal,-8.629,37.156,33.0,1991-02-23 15:28:24.530000+00:00,POINT (-8.629 37.156)
667584693800,"6 km SW of Arcos de la Frontera, Spain",reviewed,0,138,earthquake,3.0, Spain,-5.85,36.705,10.0,1991-02-26 16:11:33.800000+00:00,POINT (-5.85 36.705)
667864109810,"13 km E of Benamaurel, Spain",reviewed,0,81,earthquake,2.3, Spain,-2.547,37.589,10.0,1991-03-01 21:48:29.810000+00:00,POINT (-2.547 37.589)
667864109810,"13 km E of Benamaurel, Spain",reviewed,0,81,earthquake,2.3, Spain,-2.547,37.589,10.0,1991-03-01 21:48:29.810000+00:00,POINT (-2.547 37.589)
668066690090,"33 km ENE of Imzouren, Morocco",reviewed,0,89,earthquake,2.4, Morocco,-3.506,35.253,33.0,1991-03-04 06:04:50.090000+00:00,POINT (-3.506 35.253)
668128301970,"86 km ENE of Cadaqués, Spain",reviewed,0,96,earthquake,2.5, Spain,4.299,42.472,10.0,1991-03-04 23:11:41.970000+00:00,POINT (4.299 42.472)
668454046590,"15 km WSW of Relizane, Algeria",reviewed,0,246,earthquake,4.0, Algeria,0.417,35.662,10.0,1991-03-08 17:40:46.590000+00:00,POINT (0.417 35.662)
668527353120,"32 km NNW of Luanco, Spain",reviewed,0,138,earthquake,3.0, Spain,-5.987,43.873,10.0,1991-03-09 14:02:33.120000+00:00,POINT (-5.987 43.873)
668537213950,"4 km ESE of Cambil, Spain",reviewed,0,89,earthquake,2.4, Spain,-3.518,37.655,10.0,1991-03-09 16:46:53.950000+00:00,POINT (-3.518 37.655)
668777910840,"6 km S of Ogeu-les-Bains, France",reviewed,0,15,earthquake,1.0, France,-0.519,43.094,5.0,1991-03-12 11:38:30.840000+00:00,POINT (-0.519 43.094)
669036027940,"5 km WNW of Benavarri / Benabarre, Spain",reviewed,0,121,earthquake,2.8, Spain,0.42,42.122,10.0,1991-03-15 11:20:27.940000+00:00,POINT (0.42 42.122)
669038168390,"8 km WSW of Louvie-Juzon, France",reviewed,0,26,earthquake,1.3, France,-0.505,43.05,5.0,1991-03-15 11:56:08.390000+00:00,POINT (-0.505 43.05)
669068819820,"1 km W of Arudy, France",reviewed,0,15,earthquake,1.0, France,-0.447,43.107,5.0,1991-03-15 20:26:59.820000+00:00,POINT (-0.447 43.107)
669187161650,"1 km NNE of Cantoria, Spain",reviewed,0,104,earthquake,2.6, Spain,-2.184,37.367,10.0,1991-03-17 05:19:21.650000+00:00,POINT (-2.184 37.367)
669219176780,"7 km W of Láncara, Spain",reviewed,0,129,earthquake,2.9, Spain,-7.427,42.857,10.0,1991-03-17 14:12:56.780000+00:00,POINT (-7.427 42.857)
669570030880,"3 km NE of Arette, France",reviewed,0,15,earthquake,1.0, France,-0.678,43.117,10.0,1991-03-21 15:40:30.880000+00:00,POINT (-0.678 43.117)
670296863180,"5 km E of Sierra de Yeguas, Spain",reviewed,0,121,earthquake,2.8, Spain,-4.805,37.131,10.0,1991-03-30 01:34:23.180000+00:00,POINT (-4.805 37.131)
670549666320,"2 km S of Mauléon-Licharre, France",reviewed,0,271,earthquake,4.2, France,-0.891,43.2,25.4,1991-04-01 23:47:46.320000+00:00,POINT (-0.891 43.2)
670550631000,"6 km SE of Arette, France",reviewed,0,81,earthquake,2.3, France,-0.66,43.054,10.0,1991-04-02 00:03:51+00:00,POINT (-0.66 43.054)
670694463160,"3 km NNE of Saelices, Spain",reviewed,0,121,earthquake,2.8, Spain,-2.79,39.953,10.0,1991-04-03 16:01:03.160000+00:00,POINT (-2.79 39.953)
670804540790,"21 km WSW of Arette, France",reviewed,0,15,earthquake,1.0, France,-0.964,43.04,10.0,1991-04-04 22:35:40.790000+00:00,POINT (-0.964 43.04)
670831838360,"48 km S of Torrenueva, Spain",reviewed,0,129,earthquake,2.9, Spain,-3.413,36.273,10.0,1991-04-05 06:10:38.360000+00:00,POINT (-3.413 36.273)
671187823930,"9 km E of Arette, France",reviewed,0,15,earthquake,1.0, France,-0.597,43.083,10.0,1991-04-09 09:03:43.930000+00:00,POINT (-0.597 43.083)
671221756750,"3 km ENE of Vilasantar, Spain",reviewed,0,112,earthquake,2.7, Spain,-8.078,43.079,10.0,1991-04-09 18:29:16.750000+00:00,POINT (-8.078 43.079)
671234758020,"8 km SSW of Ogeu-les-Bains, France",reviewed,0,89,earthquake,2.4, France,-0.563,43.082,10.0,1991-04-09 22:05:58.020000+00:00,POINT (-0.563 43.082)
671275550910,"1 km NW of Ermua, Spain",reviewed,0,138,earthquake,3.0, Spain,-2.517,43.198,10.0,1991-04-10 09:25:50.910000+00:00,POINT (-2.517 43.198)
671329288100,"8 km E of Arette, France",reviewed,0,15,earthquake,1.0, France,-0.613,43.106,10.0,1991-04-11 00:21:28.100000+00:00,POINT (-0.613 43.106)
671807313720,"5 km WNW of María, Spain",reviewed,0,188,earthquake,3.5, Spain,-2.227,37.728,10.0,1991-04-16 13:08:33.720000+00:00,POINT (-2.227 37.728)
671866008160,"14 km N of Zumaia, Spain",reviewed,0,138,earthquake,3.0, Spain,-2.272,43.428,10.0,1991-04-17 05:26:48.160000+00:00,POINT (-2.272 43.428)
671911209840,"5 km WSW of Arudy, France",reviewed,0,30,earthquake,1.4, France,-0.493,43.093,10.0,1991-04-17 18:00:09.840000+00:00,POINT (-0.493 43.093)
671974123440,"3 km S of Arette, France",reviewed,0,15,earthquake,1.0, France,-0.72,43.06,10.0,1991-04-18 11:28:43.440000+00:00,POINT (-0.72 43.06)
672138849330,"7 km WSW of Chirivel, Spain",reviewed,0,168,earthquake,3.3, Spain,-2.339,37.561,10.0,1991-04-20 09:14:09.330000+00:00,POINT (-2.339 37.561)
672143028780,"5 km ESE of Berberana, Spain",reviewed,0,138,earthquake,3.0, Spain,-2.999,42.892,10.0,1991-04-20 10:23:48.780000+00:00,POINT (-2.999 42.892)
672203188250,"5 km NNW of Laruns, France",reviewed,0,15,earthquake,1.0, France,-0.443,43.037,10.0,1991-04-21 03:06:28.250000+00:00,POINT (-0.443 43.037)
672233384880,"5 km WSW of Asson, France",reviewed,0,129,earthquake,2.9, France,-0.323,43.125,10.0,1991-04-21 11:29:44.880000+00:00,POINT (-0.323 43.125)
672289205540,"2 km NNW of Yunquera, Spain",reviewed,0,148,earthquake,3.1, Spain,-4.93,36.754,33.0,1991-04-22 03:00:05.540000+00:00,POINT (-4.93 36.754)
672383613630,"6 km S of Chirivel, Spain",reviewed,0,178,earthquake,3.4, Spain,-2.276,37.541,10.0,1991-04-23 05:13:33.630000+00:00,POINT (-2.276 37.541)
672630332380,"9 km NE of Ansó, Spain",reviewed,0,15,earthquake,1.0, Spain,-0.762,42.828,10.0,1991-04-26 01:45:32.380000+00:00,POINT (-0.762 42.828)
672816074770,"6 km SE of Betelu, Spain",reviewed,0,148,earthquake,3.1, Spain,-1.931,42.983,10.0,1991-04-28 05:21:14.770000+00:00,POINT (-1.931 42.983)
672835353670,"5 km SE of Huéscar, Spain",reviewed,0,148,earthquake,3.1, Spain,-2.495,37.775,10.0,1991-04-28 10:42:33.670000+00:00,POINT (-2.495 37.775)
672860612840,"4 km NW of Ogeu-les-Bains, France",reviewed,0,168,earthquake,3.3, France,-0.546,43.174,10.0,1991-04-28 17:43:32.840000+00:00,POINT (-0.546 43.174)
672920435710,"6 km WSW of Benavarri / Benabarre, Spain",reviewed,0,138,earthquake,3.0, Spain,0.415,42.083,10.0,1991-04-29 10:20:35.710000+00:00,POINT (0.415 42.083)
673025904830,"6 km SW of Ogeu-les-Bains, France",reviewed,0,15,earthquake,1.0, France,-0.559,43.109,10.0,1991-04-30 15:38:24.830000+00:00,POINT (-0.559 43.109)
673076877620,"8 km ENE of Arette, France",reviewed,0,15,earthquake,1.0, France,-0.618,43.111,10.0,1991-05-01 05:47:57.620000+00:00,POINT (-0.618 43.111)
673213246660,"13 km SW of Arette, France",reviewed,0,15,earthquake,1.0, France,-0.848,43.015,10.0,1991-05-02 19:40:46.660000+00:00,POINT (-0.848 43.015)
673340340650,"15 km ESE of Aracena, Spain",reviewed,0,148,earthquake,3.1, Spain,-6.386,37.859,10.0,1991-05-04 06:59:00.650000+00:00,POINT (-6.386 37.859)
673365947200,"5 km WSW of Ogeu-les-Bains, France",reviewed,0,15,earthquake,1.0, France,-0.563,43.12,10.0,1991-05-04 14:05:47.200000+00:00,POINT (-0.563 43.12)
673384802460,"3 km NW of Malpica, Spain",reviewed,0,138,earthquake,3.0, Spain,-8.838,43.349,10.0,1991-05-04 19:20:02.460000+00:00,POINT (-8.838 43.349)
673491973730,"0 km SSE of Louvie-Juzon, France",reviewed,0,44,earthquake,1.7, France,-0.416,43.08,10.0,1991-05-06 01:06:13.730000+00:00,POINT (-0.416 43.08)
673514720920,"7 km SW of Chirivel, Spain",reviewed,0,188,earthquake,3.5, Spain,-2.338,37.554,10.0,1991-05-06 07:25:20.920000+00:00,POINT (-2.338 37.554)
673519693800,"14 km W of Chirivel, Spain",reviewed,0,112,earthquake,2.7, Spain,-2.433,37.577,10.0,1991-05-06 08:48:13.800000+00:00,POINT (-2.433 37.577)
673568117550,"7 km NNW of Oria, Spain",reviewed,0,158,earthquake,3.2, Spain,-2.332,37.542,10.0,1991-05-06 22:15:17.550000+00:00,POINT (-2.332 37.542)
673576580230,"6 km SW of Chirivel, Spain",reviewed,0,246,earthquake,4.0, Spain,-2.329,37.562,10.0,1991-05-07 00:36:20.230000+00:00,POINT (-2.329 37.562)
673628526610,"9 km NW of Oria, Spain",reviewed,0,129,earthquake,2.9, Spain,-2.37,37.542,10.0,1991-05-07 15:02:06.610000+00:00,POINT (-2.37 37.542)
673735898580,"6 km ESE of Louvie-Juzon, France",reviewed,0,19,earthquake,1.1, France,-0.337,43.069,10.0,1991-05-08 20:51:38.580000+00:00,POINT (-0.337 43.069)
673745442870,"8 km SSW of Ogeu-les-Bains, France",reviewed,0,15,earthquake,1.0, France,-0.542,43.079,10.0,1991-05-08 23:30:42.870000+00:00,POINT (-0.542 43.079)
673792929960,"8 km W of Oimbra, Spain",reviewed,0,112,earthquake,2.7, Spain,-7.571,41.876,10.0,1991-05-09 12:42:09.960000+00:00,POINT (-7.571 41.876)
673993434760,"6 km NNW of Oria, Spain",reviewed,0,168,earthquake,3.3, Spain,-2.33,37.539,10.0,1991-05-11 20:23:54.760000+00:00,POINT (-2.33 37.539)
674017277930,"5 km NE of Arthez-de-Béarn, France",reviewed,0,158,earthquake,3.2, France,-0.566,43.5,10.0,1991-05-12 03:01:17.930000+00:00,POINT (-0.566 43.5)
674039857010,"3 km SE of Martín de la Jara, Spain",reviewed,0,96,earthquake,2.5, Spain,-4.94,37.086,10.0,1991-05-12 09:17:37.010000+00:00,POINT (-4.94 37.086)
674041315660,"3 km N of Martín de la Jara, Spain",reviewed,0,96,earthquake,2.5, Spain,-4.967,37.141,10.0,1991-05-12 09:41:55.660000+00:00,POINT (-4.967 37.141)
674463419370,"9 km N of Macedo de Cavaleiros, Portugal",reviewed,0,158,earthquake,3.2, Portugal,-6.975,41.62,10.0,1991-05-17 06:56:59.370000+00:00,POINT (-6.975 41.62)
674687089860,"19 km WSW of Arette, France",reviewed,0,15,earthquake,1.0, France,-0.947,43.052,10.0,1991-05-19 21:04:49.860000+00:00,POINT (-0.947 43.052)
674897801300,"7 km SW of Saint-Pé-de-Bigorre, France",reviewed,0,15,earthquake,1.0, France,-0.228,43.064,10.0,1991-05-22 07:36:41.300000+00:00,POINT (-0.228 43.064)
675083258130,"7 km SSW of Mauléon-Licharre, France",reviewed,0,15,earthquake,1.0, France,-0.921,43.164,10.0,1991-05-24 11:07:38.130000+00:00,POINT (-0.921 43.164)
675346792730,"1 km ENE of Chéraute, France",reviewed,0,22,earthquake,1.2, France,-0.856,43.235,10.0,1991-05-27 12:19:52.730000+00:00,POINT (-0.856 43.235)
675372049480,"5 km WSW of Arette, France",reviewed,0,30,earthquake,1.4, France,-0.781,43.069,10.0,1991-05-27 19:20:49.480000+00:00,POINT (-0.781 43.069)
675405082690,"6 km SSW of Ubrique, Spain",reviewed,0,138,earthquake,3.0, Spain,-5.472,36.627,10.0,1991-05-28 04:31:22.690000+00:00,POINT (-5.472 36.627)
675423247040,"2 km WNW of Padul, Spain",reviewed,0,148,earthquake,3.1, Spain,-3.648,37.033,10.0,1991-05-28 09:34:07.040000+00:00,POINT (-3.648 37.033)
675426736500,"9 km WSW of Cortes de la Frontera, Spain",reviewed,0,96,earthquake,2.5, Spain,-5.439,36.575,5.0,1991-05-28 10:32:16.500000+00:00,POINT (-5.439 36.575)
675427577920,"7 km WSW of Cortes de la Frontera, Spain",reviewed,0,138,earthquake,3.0, Spain,-5.417,36.594,5.0,1991-05-28 10:46:17.920000+00:00,POINT (-5.417 36.594)
675462003550,"13 km E of Luz-Saint-Sauveur, France",reviewed,0,148,earthquake,3.1, France,0.165,42.883,20.3,1991-05-28 20:20:03.550000+00:00,POINT (0.165 42.883)
675594112350,"7 km SSE of Arette, France",reviewed,0,15,earthquake,1.0, France,-0.692,43.028,10.0,1991-05-30 09:01:52.350000+00:00,POINT (-0.692 43.028)
675634237810,"2 km SSW of Minaya, Spain",reviewed,0,222,earthquake,3.8, Spain,-2.335,39.25,5.0,1991-05-30 20:10:37.810000+00:00,POINT (-2.335 39.25)
675773032870,"4 km NE of Quintela de Leirado, Spain",reviewed,0,148,earthquake,3.1, Spain,-8.061,42.169,10.0,1991-06-01 10:43:52.870000+00:00,POINT (-8.061 42.169)
675819200330,"57 km ESE of La Manga del Mar Menor, Spain",reviewed,0,178,earthquake,3.4, Spain,-0.126,37.432,17.0,1991-06-01 23:33:20.330000+00:00,POINT (-0.126 37.432)
676036312080,"2 km NW of Villarluengo, Spain",reviewed,0,112,earthquake,2.7, Spain,-0.55,40.668,10.0,1991-06-04 11:51:52.080000+00:00,POINT (-0.55 40.668)
676448145540,"5 km WSW of Arudy, France",reviewed,0,68,earthquake,2.1, France,-0.504,43.092,10.0,1991-06-09 06:15:45.540000+00:00,POINT (-0.504 43.092)
676484718650,"3 km NE of Martín de la Jara, Spain",reviewed,0,188,earthquake,3.5, Spain,-4.929,37.128,5.0,1991-06-09 16:25:18.650000+00:00,POINT (-4.929 37.128)
676703622430,"5 km WNW of Los Corrales, Spain",reviewed,0,112,earthquake,2.7, Spain,-5.034,37.123,10.0,1991-06-12 05:13:42.430000+00:00,POINT (-5.034 37.123)
676769212140,"3 km NE of Sesimbra, Portugal",reviewed,0,158,earthquake,3.2, Portugal,-9.073,38.464,11.3,1991-06-12 23:26:52.140000+00:00,POINT (-9.073 38.464)
676774877090,"7 km S of Encinedo, Spain",reviewed,0,148,earthquake,3.1, Spain,-6.599,42.206,10.0,1991-06-13 01:01:17.090000+00:00,POINT (-6.599 42.206)
676785809880,"2 km SE of Ossun, France",reviewed,0,222,earthquake,3.8, France,0.002,43.168,17.6,1991-06-13 04:03:29.880000+00:00,POINT (0.002 43.168)
676800821500,"5 km WSW of Ogeu-les-Bains, France",reviewed,0,15,earthquake,1.0, France,-0.561,43.124,10.0,1991-06-13 08:13:41.500000+00:00,POINT (-0.561 43.124)
676822298480,"4 km ESE of Louvie-Juzon, France",reviewed,0,15,earthquake,1.0, France,-0.368,43.078,10.0,1991-06-13 14:11:38.480000+00:00,POINT (-0.368 43.078)
676851325190,"3 km SE of Arette, France",reviewed,0,15,earthquake,1.0, France,-0.684,43.071,10.0,1991-06-13 22:15:25.190000+00:00,POINT (-0.684 43.071)
677124074850,"8 km ESE of Arette, France",reviewed,0,15,earthquake,1.0, France,-0.619,43.073,5.0,1991-06-17 02:01:14.850000+00:00,POINT (-0.619 43.073)
677445867830,"3 km SE of Tavarede, Portugal",reviewed,0,188,earthquake,3.5, Portugal,-8.815,40.144,20.2,1991-06-20 19:24:27.830000+00:00,POINT (-8.815 40.144)
677536587410,"2 km NE of Saldías, Spain",reviewed,0,30,earthquake,1.4, Spain,-1.759,43.1,10.0,1991-06-21 20:36:27.410000+00:00,POINT (-1.759 43.1)
677539440670,"5 km SE of Monachil, Spain",reviewed,0,104,earthquake,2.6, Spain,-3.503,37.096,10.0,1991-06-21 21:24:00.670000+00:00,POINT (-3.503 37.096)
677939693960,Spain,reviewed,0,112,earthquake,2.7,Spain,-6.315,37.94,10.0,1991-06-26 12:34:53.960000+00:00,POINT (-6.315 37.94)
678027596280,"11 km S of Écija, Spain",reviewed,0,96,earthquake,2.5, Spain,-5.058,37.443,10.0,1991-06-27 12:59:56.280000+00:00,POINT (-5.058 37.443)
678091702810,"4 km WSW of Chimeneas, Spain",reviewed,0,138,earthquake,3.0, Spain,-3.866,37.108,10.0,1991-06-28 06:48:22.810000+00:00,POINT (-3.866 37.108)
678135211550,"6 km E of Louvie-Juzon, France",reviewed,0,15,earthquake,1.0, France,-0.345,43.091,10.0,1991-06-28 18:53:31.550000+00:00,POINT (-0.345 43.091)
678153432260,"6 km NW of Marinaleda, Spain",reviewed,0,138,earthquake,3.0, Spain,-5.006,37.421,10.0,1991-06-28 23:57:12.260000+00:00,POINT (-5.006 37.421)
678249195130,"4 km SW of Lourdes, France",reviewed,0,138,earthquake,3.0, France,-0.08,43.067,10.0,1991-06-30 02:33:15.130000+00:00,POINT (-0.08 43.067)
678691538930,"36 km SSW of Mazagón, Spain",reviewed,0,158,earthquake,3.2, Spain,-6.974,36.826,18.3,1991-07-05 05:25:38.930000+00:00,POINT (-6.974 36.826)
678807294160,"35 km ENE of Al Hoceïma, Morocco",reviewed,0,222,earthquake,3.8, Morocco,-3.579,35.378,9.8,1991-07-06 13:34:54.160000+00:00,POINT (-3.579 35.378)
678885936420,"29 km W of Asilah, Morocco",reviewed,0,222,earthquake,3.8, Morocco,-6.357,35.42,33.0,1991-07-07 11:25:36.420000+00:00,POINT (-6.357 35.42)
679019019480,"23 km S of Torrenueva, Spain",reviewed,0,129,earthquake,2.9, Spain,-3.506,36.49,10.0,1991-07-09 00:23:39.480000+00:00,POINT (-3.506 36.49)
679363190950,"30 km N of El Abadia, Algeria",reviewed,0,138,earthquake,3.0, Algeria,1.726,36.545,10.0,1991-07-12 23:59:50.950000+00:00,POINT (1.726 36.545)
679460317730,"34 km N of El Abadia, Algeria",reviewed,0,138,earthquake,3.0, Algeria,1.677,36.579,10.0,1991-07-14 02:58:37.730000+00:00,POINT (1.677 36.579)
679665062860,"11 km WSW of Fuentes de Ebro, Spain",reviewed,0,129,earthquake,2.9, Spain,-0.744,41.46,10.0,1991-07-16 11:51:02.860000+00:00,POINT (-0.744 41.46)
679668637160,"9 km S of Socovos, Spain",reviewed,0,96,earthquake,2.5, Spain,-1.994,38.244,10.0,1991-07-16 12:50:37.160000+00:00,POINT (-1.994 38.244)
679711216740,"2 km S of Montblanc, Spain",reviewed,0,129,earthquake,2.9, Spain,1.168,41.35,10.0,1991-07-17 00:40:16.740000+00:00,POINT (1.168 41.35)
679747787650,"3 km SE of Fortuna, Spain",reviewed,0,158,earthquake,3.2, Spain,-1.093,38.164,10.0,1991-07-17 10:49:47.650000+00:00,POINT (-1.093 38.164)
679899298470,"4 km WSW of Arette, France",reviewed,0,26,earthquake,1.3, France,-0.764,43.081,10.0,1991-07-19 04:54:58.470000+00:00,POINT (-0.764 43.081)
679913454530,"10 km SW of Ogeu-les-Bains, France",reviewed,0,15,earthquake,1.0, France,-0.576,43.07,5.0,1991-07-19 08:50:54.530000+00:00,POINT (-0.576 43.07)
680424439020,"6 km ENE of Louvie-Juzon, France",reviewed,0,138,earthquake,3.0, France,-0.342,43.104,5.0,1991-07-25 06:47:19.020000+00:00,POINT (-0.342 43.104)
680568829860,"11 km NNE of Lannemezan, France",reviewed,0,129,earthquake,2.9, France,0.444,43.216,10.0,1991-07-26 22:53:49.860000+00:00,POINT (0.444 43.216)
681123472960,"8 km WNW of Agrón, Spain",reviewed,0,158,earthquake,3.2, Spain,-3.918,37.062,10.0,1991-08-02 08:57:52.960000+00:00,POINT (-3.918 37.062)
681203534770,"2 km ENE of Pontevedra, Spain",reviewed,0,129,earthquake,2.9, Spain,-8.621,42.442,10.0,1991-08-03 07:12:14.770000+00:00,POINT (-8.621 42.442)
681215939130,"5 km SW of Louvie-Juzon, France",reviewed,0,15,earthquake,1.0, France,-0.479,43.055,10.0,1991-08-03 10:38:59.130000+00:00,POINT (-0.479 43.055)
681279786550,"4 km NE of Arette, France",reviewed,0,15,earthquake,1.0, France,-0.677,43.117,10.0,1991-08-04 04:23:06.550000+00:00,POINT (-0.677 43.117)
681454646810,"18 km S of Nerpio, Spain",reviewed,0,121,earthquake,2.8, Spain,-2.285,37.983,10.0,1991-08-06 04:57:26.810000+00:00,POINT (-2.285 37.983)
681458242880,"5 km WSW of Arette, France",reviewed,0,15,earthquake,1.0, France,-0.773,43.07,10.0,1991-08-06 05:57:22.880000+00:00,POINT (-0.773 43.07)
681480607740,"2 km WNW of Ejulve, Spain",reviewed,0,104,earthquake,2.6, Spain,-0.579,40.781,10.0,1991-08-06 12:10:07.740000+00:00,POINT (-0.579 40.781)
681622317730,"0 km S of Atarfe, Spain",reviewed,0,129,earthquake,2.9, Spain,-3.688,37.219,10.0,1991-08-08 03:31:57.730000+00:00,POINT (-3.688 37.219)
681689958430,"1 km ENE of Louvie-Juzon, France",reviewed,0,15,earthquake,1.0, France,-0.399,43.096,10.0,1991-08-08 22:19:18.430000+00:00,POINT (-0.399 43.096)
681730721650,"8 km E of Arette, France",reviewed,0,15,earthquake,1.0, France,-0.615,43.094,10.0,1991-08-09 09:38:41.650000+00:00,POINT (-0.615 43.094)
681734214630,"13 km SE of Saint-Jean-Pied-de-Port, France",reviewed,0,15,earthquake,1.0, France,-1.102,43.097,10.0,1991-08-09 10:36:54.630000+00:00,POINT (-1.102 43.097)
681767449140,"9 km SSW of Ogeu-les-Bains, France",reviewed,0,15,earthquake,1.0, France,-0.562,43.073,10.0,1991-08-09 19:50:49.140000+00:00,POINT (-0.562 43.073)
681818209220,"6 km SW of Arudy, France",reviewed,0,15,earthquake,1.0, France,-0.5,43.069,10.0,1991-08-10 09:56:49.220000+00:00,POINT (-0.5 43.069)
681831499690,"8 km SSW of Diezma, Spain",reviewed,0,104,earthquake,2.6, Spain,-3.382,37.253,10.0,1991-08-10 13:38:19.690000+00:00,POINT (-3.382 37.253)
681860771030,"7 km ESE of Arette, France",reviewed,0,15,earthquake,1.0, France,-0.634,43.075,10.0,1991-08-10 21:46:11.030000+00:00,POINT (-0.634 43.075)
681897378000,"6 km E of Arette, France",reviewed,0,26,earthquake,1.3, France,-0.639,43.085,10.0,1991-08-11 07:56:18+00:00,POINT (-0.639 43.085)
681962641090,"2 km NW of Pinos Genil, Spain",reviewed,0,121,earthquake,2.8, Spain,-3.521,37.181,5.0,1991-08-12 02:04:01.090000+00:00,POINT (-3.521 37.181)
682051179820,"2 km WSW of Nay, France",reviewed,0,158,earthquake,3.2, France,-0.284,43.171,10.0,1991-08-13 02:39:39.820000+00:00,POINT (-0.284 43.171)
682082871350,"5 km SW of Louvie-Juzon, France",reviewed,0,15,earthquake,1.0, France,-0.478,43.054,10.0,1991-08-13 11:27:51.350000+00:00,POINT (-0.478 43.054)
682165926930,"10 km SE of Almansa, Spain",reviewed,0,271,earthquake,4.2, Spain,-1.008,38.806,10.0,1991-08-14 10:32:06.930000+00:00,POINT (-1.008 38.806)
682295571720,"11 km E of Vielha, Spain",reviewed,0,148,earthquake,3.1, Spain,0.93,42.691,10.0,1991-08-15 22:32:51.720000+00:00,POINT (0.93 42.691)
682458408110,"5 km SW of Louvie-Juzon, France",reviewed,0,15,earthquake,1.0, France,-0.466,43.048,10.0,1991-08-17 19:46:48.110000+00:00,POINT (-0.466 43.048)
682496213820,"6 km S of Aurignac, France",reviewed,0,104,earthquake,2.6, France,0.886,43.157,10.0,1991-08-18 06:16:53.820000+00:00,POINT (0.886 43.157)
682561979780,"3 km SSW of Laspaúles, Spain",reviewed,0,112,earthquake,2.7, Spain,0.586,42.438,10.0,1991-08-19 00:32:59.780000+00:00,POINT (0.586 42.438)
682686938660,"6 km SSW of Laroya, Spain",reviewed,0,104,earthquake,2.6, Spain,-2.368,37.246,10.0,1991-08-20 11:15:38.660000+00:00,POINT (-2.368 37.246)
682766214690,"14 km NNE of Al Hoceïma, Morocco",reviewed,0,178,earthquake,3.4, Morocco,-3.855,35.364,10.0,1991-08-21 09:16:54.690000+00:00,POINT (-3.855 35.364)
682779074370,"2 km NNW of Arudy, France",reviewed,0,15,earthquake,1.0, France,-0.447,43.123,10.0,1991-08-21 12:51:14.370000+00:00,POINT (-0.447 43.123)
682857046710,"12 km NW of Aïn el Bya, Algeria",reviewed,0,158,earthquake,3.2, Algeria,-0.394,35.885,10.0,1991-08-22 10:30:46.710000+00:00,POINT (-0.394 35.885)
682895437500,"6 km SW of Louvie-Juzon, France",reviewed,0,15,earthquake,1.0, France,-0.473,43.042,10.0,1991-08-22 21:10:37.500000+00:00,POINT (-0.473 43.042)
682896997030,"14 km NNE of Vélez-Blanco, Spain",reviewed,0,121,earthquake,2.8, Spain,-2.019,37.811,10.0,1991-08-22 21:36:37.030000+00:00,POINT (-2.019 37.811)
683007809810,"2 km W of Huélago, Spain",reviewed,0,104,earthquake,2.6, Spain,-3.294,37.415,10.0,1991-08-24 04:23:29.810000+00:00,POINT (-3.294 37.415)
683053808240,"1 km S of Sorvilán, Spain",reviewed,0,96,earthquake,2.5, Spain,-3.266,36.779,10.0,1991-08-24 17:10:08.240000+00:00,POINT (-3.266 36.779)
683273158570,"7 km SE of Moraña, Spain",reviewed,0,129,earthquake,2.9, Spain,-8.512,42.51,5.0,1991-08-27 06:05:58.570000+00:00,POINT (-8.512 42.51)
683347119170,"1 km WNW of Las Gabias, Spain",reviewed,0,129,earthquake,2.9, Spain,-3.683,37.14,10.0,1991-08-28 02:38:39.170000+00:00,POINT (-3.683 37.14)
683510155710,"2 km S of Bielsa, Spain",reviewed,0,158,earthquake,3.2, Spain,0.217,42.612,10.0,1991-08-29 23:55:55.710000+00:00,POINT (0.217 42.612)
683686846410,"6 km WSW of Senhora da Luz, Portugal",reviewed,0,148,earthquake,3.1, Portugal,-8.791,37.059,33.0,1991-09-01 01:00:46.410000+00:00,POINT (-8.791 37.059)
683915450060,"6 km ENE of Laruns, France",reviewed,0,26,earthquake,1.3, France,-0.352,43.019,10.0,1991-09-03 16:30:50.060000+00:00,POINT (-0.352 43.019)
684032290430,"4 km W of Villanueva de San Juan, Spain",reviewed,0,121,earthquake,2.8, Spain,-5.23,37.052,10.0,1991-09-05 00:58:10.430000+00:00,POINT (-5.23 37.052)
684107813650,"4 km S of Bocairent, Spain",reviewed,0,148,earthquake,3.1, Spain,-0.61,38.73,10.0,1991-09-05 21:56:53.650000+00:00,POINT (-0.61 38.73)
684619972560,"27 km S of Adra, Spain",reviewed,0,178,earthquake,3.4, Spain,-3.072,36.502,10.0,1991-09-11 20:12:52.560000+00:00,POINT (-3.072 36.502)
684822415100,"7 km ENE of Arette, France",reviewed,0,22,earthquake,1.2, France,-0.632,43.112,10.0,1991-09-14 04:26:55.100000+00:00,POINT (-0.632 43.112)
684843349680,"72 km W of Sagres, Portugal",reviewed,0,178,earthquake,3.4, Portugal,-9.744,36.911,21.7,1991-09-14 10:15:49.680000+00:00,POINT (-9.744 36.911)
684852500380,"67 km SSW of Faro, Portugal",reviewed,0,158,earthquake,3.2, Portugal,-8.209,36.45,25.0,1991-09-14 12:48:20.380000+00:00,POINT (-8.209 36.45)
685099202900,"3 km S of San Martín de la Vega, Spain",reviewed,0,121,earthquake,2.8, Spain,-3.567,40.176,10.0,1991-09-17 09:20:02.900000+00:00,POINT (-3.567 40.176)
685137062690,"7 km E of Arette, France",reviewed,0,15,earthquake,1.0, France,-0.622,43.108,10.0,1991-09-17 19:51:02.690000+00:00,POINT (-0.622 43.108)
685157460450,"4 km S of Prado del Rey, Spain",reviewed,0,104,earthquake,2.6, Spain,-5.559,36.745,10.0,1991-09-18 01:31:00.450000+00:00,POINT (-5.559 36.745)
685339613900,"7 km NNW of Adra, Spain",reviewed,0,81,earthquake,2.3, Spain,-3.041,36.818,10.0,1991-09-20 04:06:53.900000+00:00,POINT (-3.041 36.818)
685435729920,"17 km SSW of Cehegín, Spain",reviewed,0,138,earthquake,3.0, Spain,-1.866,37.947,10.0,1991-09-21 06:48:49.920000+00:00,POINT (-1.866 37.947)
685447249830,"72 km S of Carvoeiro, Portugal",reviewed,0,158,earthquake,3.2, Portugal,-8.468,36.441,10.0,1991-09-21 10:00:49.830000+00:00,POINT (-8.468 36.441)
685507952400,"22 km ENE of Imzouren, Morocco",reviewed,0,121,earthquake,2.8, Morocco,-3.637,35.254,10.0,1991-09-22 02:52:32.400000+00:00,POINT (-3.637 35.254)
685841838970,"6 km WNW of Santa Eulalia de Oscos, Spain",reviewed,0,168,earthquake,3.3, Spain,-7.093,43.276,11.0,1991-09-25 23:37:18.970000+00:00,POINT (-7.093 43.276)
685931841640,"11 km SW of Fonsagrada, Spain",reviewed,0,168,earthquake,3.3, Spain,-7.176,43.058,10.0,1991-09-27 00:37:21.640000+00:00,POINT (-7.176 43.058)
685973474730,western Mediterranean Sea,reviewed,0,168,earthquake,3.3,western Mediterranean Sea,-1.854,36.605,5.0,1991-09-27 12:11:14.730000+00:00,POINT (-1.854 36.605)
686150149890,"15 km N of São Brás de Alportel, Portugal",reviewed,0,138,earthquake,3.0, Portugal,-7.919,37.29,10.0,1991-09-29 13:15:49.890000+00:00,POINT (-7.919 37.29)
686323729640,"3 km E of Abarán, Spain",reviewed,0,104,earthquake,2.6, Spain,-1.365,38.21,10.0,1991-10-01 13:28:49.640000+00:00,POINT (-1.365 38.21)
686451120910,"10 km W of Arette, France",reviewed,0,15,earthquake,1.0, France,-0.849,43.09,10.0,1991-10-03 00:52:00.910000+00:00,POINT (-0.849 43.09)
686466334110,"3 km NNE of Arudy, France",reviewed,0,138,earthquake,3.0, France,-0.413,43.132,10.0,1991-10-03 05:05:34.110000+00:00,POINT (-0.413 43.132)
686794018040,"4 km ENE of El Coronil, Spain",reviewed,0,112,earthquake,2.7, Spain,-5.588,37.104,10.0,1991-10-07 00:06:58.040000+00:00,POINT (-5.588 37.104)
686807459190,"2 km SSW of Pinos Puente, Spain",reviewed,0,121,earthquake,2.8, Spain,-3.761,37.233,5.0,1991-10-07 03:50:59.190000+00:00,POINT (-3.761 37.233)
686821315630,"117 km SSW of Sagres, Portugal",reviewed,0,211,earthquake,3.7, Portugal,-9.643,36.115,97.3,1991-10-07 07:41:55.630000+00:00,POINT (-9.643 36.115)
686919305240,"8 km ESE of Arette, France",reviewed,0,15,earthquake,1.0, France,-0.623,43.074,10.0,1991-10-08 10:55:05.240000+00:00,POINT (-0.623 43.074)
686926865670,"16 km SSE of Vielha, Spain",reviewed,0,22,earthquake,1.2, Spain,0.886,42.574,10.0,1991-10-08 13:01:05.670000+00:00,POINT (0.886 42.574)
686938947020,"1 km SSE of Albolote, Spain",reviewed,0,112,earthquake,2.7, Spain,-3.651,37.217,10.0,1991-10-08 16:22:27.020000+00:00,POINT (-3.651 37.217)
687100173090,"7 km ESE of Arette, France",reviewed,0,15,earthquake,1.0, France,-0.63,43.082,10.0,1991-10-10 13:09:33.090000+00:00,POINT (-0.63 43.082)
687265031720,"5 km NE of Coripe, Spain",reviewed,0,121,earthquake,2.8, Spain,-5.391,37.008,10.0,1991-10-12 10:57:11.720000+00:00,POINT (-5.391 37.008)
687371223620,"0 km ENE of Suflí, Spain",reviewed,0,112,earthquake,2.7, Spain,-2.381,37.34,10.0,1991-10-13 16:27:03.620000+00:00,POINT (-2.381 37.34)
687903539500,"9 km NW of Alvito, Portugal",reviewed,0,121,earthquake,2.8, Portugal,-8.059,38.316,10.0,1991-10-19 20:18:59.500000+00:00,POINT (-8.059 38.316)
688169245990,"4 km NE of Escúzar, Spain",reviewed,0,129,earthquake,2.9, Spain,-3.729,37.099,10.0,1991-10-22 22:07:25.990000+00:00,POINT (-3.729 37.099)
688268585550,"0 km WSW of San Martín de Oscos, Spain",reviewed,0,121,earthquake,2.8, Spain,-6.973,43.264,10.0,1991-10-24 01:43:05.550000+00:00,POINT (-6.973 43.264)
688344867930,"3 km SW of Mauléon-Licharre, France",reviewed,0,19,earthquake,1.1, France,-0.917,43.208,10.0,1991-10-24 22:54:27.930000+00:00,POINT (-0.917 43.208)
688345272560,"5 km NNW of Huétor-Tájar, Spain",reviewed,0,104,earthquake,2.6, Spain,-4.066,37.241,10.0,1991-10-24 23:01:12.560000+00:00,POINT (-4.066 37.241)
688536005020,"48 km N of Melilla, Spain",reviewed,0,121,earthquake,2.8, Spain,-2.837,35.72,10.0,1991-10-27 04:00:05.020000+00:00,POINT (-2.837 35.72)
688581933610,"7 km NNE of Broto, Spain",reviewed,0,26,earthquake,1.3, Spain,-0.099,42.668,10.0,1991-10-27 16:45:33.610000+00:00,POINT (-0.099 42.668)
688697234890,"18 km SSE of Fuengirola, Spain",reviewed,0,158,earthquake,3.2, Spain,-4.558,36.381,103.8,1991-10-29 00:47:14.890000+00:00,POINT (-4.558 36.381)
688866015570,"4 km NNE of Navarrenx, France",reviewed,0,96,earthquake,2.5, France,-0.746,43.361,10.0,1991-10-30 23:40:15.570000+00:00,POINT (-0.746 43.361)
689012938060,"3 km NNE of Ourense, Spain",reviewed,0,148,earthquake,3.1, Spain,-7.847,42.366,10.0,1991-11-01 16:28:58.060000+00:00,POINT (-7.847 42.366)
689192630860,"6 km NNW of Jimena de la Frontera, Spain",reviewed,0,104,earthquake,2.6, Spain,-5.489,36.482,10.0,1991-11-03 18:23:50.860000+00:00,POINT (-5.489 36.482)
689215586490,"10 km ESE of Arette, France",reviewed,0,39,earthquake,1.6, France,-0.597,43.072,10.0,1991-11-04 00:46:26.490000+00:00,POINT (-0.597 43.072)
689231617000,"2 km NW of Jimena de la Frontera, Spain",reviewed,0,19,earthquake,1.1, Spain,-5.467,36.45,10.0,1991-11-04 05:13:37+00:00,POINT (-5.467 36.45)
689306149290,"6 km NE of Alhama de Granada, Spain",reviewed,0,168,earthquake,3.3, Spain,-3.926,37.043,10.0,1991-11-05 01:55:49.290000+00:00,POINT (-3.926 37.043)
689417414240,"4 km ESE of Manilva, Spain",reviewed,0,15,earthquake,1.0, Spain,-5.2,36.367,10.0,1991-11-06 08:50:14.240000+00:00,POINT (-5.2 36.367)
689459854150,"6 km NE of Alcalá de los Gazules, Spain",reviewed,0,112,earthquake,2.7, Spain,-5.672,36.503,10.0,1991-11-06 20:37:34.150000+00:00,POINT (-5.672 36.503)
689465224400,"9 km NW of Jimena de la Frontera, Spain",reviewed,0,96,earthquake,2.5, Spain,-5.516,36.51,10.0,1991-11-06 22:07:04.400000+00:00,POINT (-5.516 36.51)
689508830050,"9 km E of Arette, France",reviewed,0,15,earthquake,1.0, France,-0.6,43.088,10.0,1991-11-07 10:13:50.050000+00:00,POINT (-0.6 43.088)
689564551630,"6 km S of Espot, Spain",reviewed,0,22,earthquake,1.2, Spain,1.082,42.519,10.0,1991-11-08 01:42:31.630000+00:00,POINT (1.082 42.519)
689882387470,"7 km ESE of Arette, France",reviewed,0,15,earthquake,1.0, France,-0.641,43.066,10.0,1991-11-11 17:59:47.470000+00:00,POINT (-0.641 43.066)
689928352520,"1 km NE of Agrón, Spain",reviewed,0,129,earthquake,2.9, Spain,-3.82,37.036,10.0,1991-11-12 06:45:52.520000+00:00,POINT (-3.82 37.036)
690029706370,"6 km SW of Casares, Spain",reviewed,0,15,earthquake,1.0, Spain,-5.327,36.403,10.0,1991-11-13 10:55:06.370000+00:00,POINT (-5.327 36.403)
690036546130,"3 km ENE of Arándiga, Spain",reviewed,0,121,earthquake,2.8, Spain,-1.46,41.525,10.0,1991-11-13 12:49:06.130000+00:00,POINT (-1.46 41.525)
690184744950,"2 km WSW of Pereruela, Spain",reviewed,0,148,earthquake,3.1, Spain,-5.908,41.403,10.0,1991-11-15 05:59:04.950000+00:00,POINT (-5.908 41.403)
690262947990,"3 km SW of Luelmo, Spain",reviewed,0,121,earthquake,2.8, Spain,-6.166,41.423,10.0,1991-11-16 03:42:27.990000+00:00,POINT (-6.166 41.423)
690359112990,"2 km WNW of Las Gabias, Spain",reviewed,0,112,earthquake,2.7, Spain,-3.702,37.142,10.0,1991-11-17 06:25:12.990000+00:00,POINT (-3.702 37.142)
690407083400,"1 km WSW of Zuheros, Spain",reviewed,0,96,earthquake,2.5, Spain,-4.333,37.535,10.0,1991-11-17 19:44:43.400000+00:00,POINT (-4.333 37.535)
690544033150,"10 km SSW of Ogeu-les-Bains, France",reviewed,0,15,earthquake,1.0, France,-0.55,43.06,5.0,1991-11-19 09:47:13.150000+00:00,POINT (-0.55 43.06)
690591974740,"10 km ESE of Arette, France",reviewed,0,15,earthquake,1.0, France,-0.594,43.071,5.0,1991-11-19 23:06:14.740000+00:00,POINT (-0.594 43.071)
690644529310,"2 km ENE of Oloron-Sainte-Marie, France",reviewed,0,15,earthquake,1.0, France,-0.588,43.203,10.0,1991-11-20 13:42:09.310000+00:00,POINT (-0.588 43.203)
690657356950,"10 km SE of Saint-Jean-Pied-de-Port, France",reviewed,0,19,earthquake,1.1, France,-1.165,43.091,10.0,1991-11-20 17:15:56.950000+00:00,POINT (-1.165 43.091)
690727929400,"5 km SE of Arette, France",reviewed,0,15,earthquake,1.0, France,-0.671,43.06,10.0,1991-11-21 12:52:09.400000+00:00,POINT (-0.671 43.06)
690983782300,"6 km S of Campan, France",reviewed,0,104,earthquake,2.6, France,0.171,42.954,5.0,1991-11-24 11:56:22.300000+00:00,POINT (0.171 42.954)
691017259020,"5 km NW of Farrera, Spain",reviewed,0,22,earthquake,1.2, Spain,1.234,42.535,10.0,1991-11-24 21:14:19.020000+00:00,POINT (1.234 42.535)
691024458960,Pyrenees,reviewed,0,89,earthquake,2.4,Pyrenees,-1.267,43.128,10.0,1991-11-24 23:14:18.960000+00:00,POINT (-1.267 43.128)
691138996100,"7 km ENE of Écija, Spain",reviewed,0,129,earthquake,2.9, Spain,-5.0,37.566,10.0,1991-11-26 07:03:16.100000+00:00,POINT (-5 37.566)
691229014190,"8 km NNW of Alsodux, Spain",reviewed,0,96,earthquake,2.5, Spain,-2.63,37.075,10.0,1991-11-27 08:03:34.190000+00:00,POINT (-2.63 37.075)
691362571270,"3 km NE of Arudy, France",reviewed,0,168,earthquake,3.3, France,-0.398,43.126,20.9,1991-11-28 21:09:31.270000+00:00,POINT (-0.398 43.126)
691506066890,"1 km N of Víznar, Spain",reviewed,0,96,earthquake,2.5, Spain,-3.552,37.243,10.0,1991-11-30 13:01:06.890000+00:00,POINT (-3.552 37.243)
691641389350,"13 km NE of Vielha, Spain",reviewed,0,121,earthquake,2.8, Spain,0.901,42.791,10.0,1991-12-02 02:36:29.350000+00:00,POINT (0.901 42.791)
691644536860,"6 km SW of Oloron-Sainte-Marie, France",reviewed,0,15,earthquake,1.0, France,-0.664,43.154,10.0,1991-12-02 03:28:56.860000+00:00,POINT (-0.664 43.154)
691676701530,"1 km WSW of Montroy, Spain",reviewed,0,112,earthquake,2.7, Spain,-0.633,39.326,10.0,1991-12-02 12:25:01.530000+00:00,POINT (-0.633 39.326)
691757187330,"2 km E of Urrácal, Spain",reviewed,0,129,earthquake,2.9, Spain,-2.334,37.394,10.0,1991-12-03 10:46:27.330000+00:00,POINT (-2.334 37.394)
691768414790,"3 km NE of Gan, France",reviewed,0,188,earthquake,3.5, France,-0.356,43.245,5.0,1991-12-03 13:53:34.790000+00:00,POINT (-0.356 43.245)
691781800320,"1 km SSE of Bosdarros, France",reviewed,0,158,earthquake,3.2, France,-0.356,43.194,10.0,1991-12-03 17:36:40.320000+00:00,POINT (-0.356 43.194)
691989677840,"4 km NE of Arette, France",reviewed,0,19,earthquake,1.1, France,-0.674,43.126,10.0,1991-12-06 03:21:17.840000+00:00,POINT (-0.674 43.126)
692091009520,"17 km SSE of Torremolinos, Spain",reviewed,0,168,earthquake,3.3, Spain,-4.439,36.468,100.0,1991-12-07 07:30:09.520000+00:00,POINT (-4.439 36.468)
692276241370,"7 km SE of La Torrecilla, Spain",reviewed,0,104,earthquake,2.6, Spain,-1.672,37.576,10.0,1991-12-09 10:57:21.370000+00:00,POINT (-1.672 37.576)
692337094580,"7 km W of Albuñuelas, Spain",reviewed,0,129,earthquake,2.9, Spain,-3.715,36.92,10.0,1991-12-10 03:51:34.580000+00:00,POINT (-3.715 36.92)
692637254040,"5 km SE of Arette, France",reviewed,0,15,earthquake,1.0, France,-0.667,43.06,5.0,1991-12-13 15:14:14.040000+00:00,POINT (-0.667 43.06)
692711657790,"2 km ENE of Bagà, Spain",reviewed,0,129,earthquake,2.9, Spain,1.885,42.26,10.0,1991-12-14 11:54:17.790000+00:00,POINT (1.885 42.26)
692797838960,"34 km SSE of Castelldefels, Spain",reviewed,0,298,earthquake,4.4, Spain,2.127,40.992,10.0,1991-12-15 11:50:38.960000+00:00,POINT (2.127 40.992)
692811030030,"6 km WNW of Agullana, Spain",reviewed,0,129,earthquake,2.9, Spain,2.769,42.418,10.0,1991-12-15 15:30:30.030000+00:00,POINT (2.769 42.418)
692840047960,"8 km WNW of Bande, Spain",reviewed,0,168,earthquake,3.3, Spain,-8.076,42.049,10.0,1991-12-15 23:34:07.960000+00:00,POINT (-8.076 42.049)
692878317780,"36 km NE of Imzouren, Morocco",reviewed,0,121,earthquake,2.8, Morocco,-3.553,35.37,10.0,1991-12-16 10:11:57.780000+00:00,POINT (-3.553 35.37)
692939616990,"68 km E of Ceuta, Spain",reviewed,0,121,earthquake,2.8, Spain,-4.564,35.882,10.0,1991-12-17 03:13:36.990000+00:00,POINT (-4.564 35.882)
693142161940,"8 km SSW of Ogeu-les-Bains, France",reviewed,0,15,earthquake,1.0, France,-0.546,43.074,10.0,1991-12-19 11:29:21.940000+00:00,POINT (-0.546 43.074)
693153322880,"7 km NE of Caniles, Spain",reviewed,0,211,earthquake,3.7, Spain,-2.66,37.481,10.0,1991-12-19 14:35:22.880000+00:00,POINT (-2.66 37.481)
693160863300,"4 km NNE of Denguin, France",reviewed,0,15,earthquake,1.0, France,-0.495,43.398,10.0,1991-12-19 16:41:03.300000+00:00,POINT (-0.495 43.398)
693292104420,"4 km E of Siete Aguas, Spain",reviewed,0,188,earthquake,3.5, Spain,-0.862,39.461,10.0,1991-12-21 05:08:24.420000+00:00,POINT (-0.862 39.461)
693321834080,"0 km WNW of Siete Aguas, Spain",reviewed,0,148,earthquake,3.1, Spain,-0.922,39.468,10.0,1991-12-21 13:23:54.080000+00:00,POINT (-0.922 39.468)
693331576290,"6 km SW of Siete Aguas, Spain",reviewed,0,138,earthquake,3.0, Spain,-0.968,39.424,10.0,1991-12-21 16:06:16.290000+00:00,POINT (-0.968 39.424)
693461904490,"11 km SSE of Bélesta, France",reviewed,0,30,earthquake,1.4, France,1.977,42.809,10.0,1991-12-23 04:18:24.490000+00:00,POINT (1.977 42.809)
693536618580,"3 km W of Louvie-Juzon, France",reviewed,0,15,earthquake,1.0, France,-0.465,43.08,10.0,1991-12-24 01:03:38.580000+00:00,POINT (-0.465 43.08)
693876534340,"7 km SE of Nerpio, Spain",reviewed,0,96,earthquake,2.5, Spain,-2.247,38.094,10.0,1991-12-27 23:28:54.340000+00:00,POINT (-2.247 38.094)
694265280360,"12 km SW of Quillan, France",reviewed,0,158,earthquake,3.2, France,2.079,42.791,10.0,1992-01-01 11:28:00.360000+00:00,POINT (2.079 42.791)
694285856560,"5 km S of Fuensanta de Martos, Spain",reviewed,0,129,earthquake,2.9, Spain,-3.92,37.6,10.0,1992-01-01 17:10:56.560000+00:00,POINT (-3.92 37.6)
694310115600,"2 km SSW of Castalla, Spain",reviewed,0,112,earthquake,2.7, Spain,-0.681,38.576,5.0,1992-01-01 23:55:15.600000+00:00,POINT (-0.681 38.576)
694568919450,"9 km NNW of Casabermeja, Spain",reviewed,0,121,earthquake,2.8, Spain,-4.472,36.97,10.0,1992-01-04 23:48:39.450000+00:00,POINT (-4.472 36.97)
694604413210,"4 km NNW of Oria, Spain",reviewed,0,138,earthquake,3.0, Spain,-2.319,37.522,5.0,1992-01-05 09:40:13.210000+00:00,POINT (-2.319 37.522)
694699547110,Strait of Gibraltar,reviewed,0,112,earthquake,2.7,Strait of Gibraltar,-4.731,35.781,10.0,1992-01-06 12:05:47.110000+00:00,POINT (-4.731 35.781)
694703267050,"6 km WNW of Yátova, Spain",reviewed,0,121,earthquake,2.8, Spain,-0.869,39.414,10.0,1992-01-06 13:07:47.050000+00:00,POINT (-0.869 39.414)
694775268810,"9 km E of Arette, France",reviewed,0,15,earthquake,1.0, France,-0.602,43.087,10.0,1992-01-07 09:07:48.810000+00:00,POINT (-0.602 43.087)
694782390240,"9 km E of Arette, France",reviewed,0,15,earthquake,1.0, France,-0.605,43.085,10.0,1992-01-07 11:06:30.240000+00:00,POINT (-0.605 43.085)
694824740820,"11 km S of Tarifa, Spain",reviewed,0,129,earthquake,2.9, Spain,-5.584,35.911,10.0,1992-01-07 22:52:20.820000+00:00,POINT (-5.584 35.911)
694852081140,"19 km SSE of Torrenueva, Spain",reviewed,0,178,earthquake,3.4, Spain,-3.411,36.537,10.0,1992-01-08 06:28:01.140000+00:00,POINT (-3.411 36.537)
694963297600,"8 km ENE of Huércal-Overa, Spain",reviewed,0,121,earthquake,2.8, Spain,-1.864,37.426,10.0,1992-01-09 13:21:37.600000+00:00,POINT (-1.864 37.426)
695191169680,"1 km SW of Padul, Spain",reviewed,0,121,earthquake,2.8, Spain,-3.637,37.018,10.0,1992-01-12 04:39:29.680000+00:00,POINT (-3.637 37.018)
695206639170,"2 km E of Louvie-Juzon, France",reviewed,0,22,earthquake,1.2, France,-0.393,43.086,10.0,1992-01-12 08:57:19.170000+00:00,POINT (-0.393 43.086)
695303769260,"3 km NNW of Villaconejos, Spain",reviewed,0,168,earthquake,3.3, Spain,-3.501,40.129,5.0,1992-01-13 11:56:09.260000+00:00,POINT (-3.501 40.129)
695442448700,"1 km SSE of Lourdes, France",reviewed,0,158,earthquake,3.2, France,-0.034,43.08,10.0,1992-01-15 02:27:28.700000+00:00,POINT (-0.034 43.08)
695508585130,"13 km S of Sort, Spain",reviewed,0,148,earthquake,3.1, Spain,1.141,42.292,10.0,1992-01-15 20:49:45.130000+00:00,POINT (1.141 42.292)
695558326980,"4 km NW of Roujan, France",reviewed,0,129,earthquake,2.9, France,3.281,43.534,10.0,1992-01-16 10:38:46.980000+00:00,POINT (3.281 43.534)
695559057300,"8 km E of Arette, France",reviewed,0,15,earthquake,1.0, France,-0.615,43.09,5.0,1992-01-16 10:50:57.300000+00:00,POINT (-0.615 43.09)
695668606470,"20 km S of Segura de la Sierra, Spain",reviewed,0,112,earthquake,2.7, Spain,-2.693,38.113,10.0,1992-01-17 17:16:46.470000+00:00,POINT (-2.693 38.113)
695734505290,"0 km S of Horgues, France",reviewed,0,234,earthquake,3.9, France,0.089,43.182,10.0,1992-01-18 11:35:05.290000+00:00,POINT (0.089 43.182)
695761639860,"8 km WSW of Sesimbra, Portugal",reviewed,0,158,earthquake,3.2, Portugal,-9.184,38.412,10.0,1992-01-18 19:07:19.860000+00:00,POINT (-9.184 38.412)
695823890550,"13 km S of Aïn Defla, Algeria",reviewed,0,211,earthquake,3.7, Algeria,1.945,36.143,10.0,1992-01-19 12:24:50.550000+00:00,POINT (1.945 36.143)
695826029910,"11 km SSW of Aïn Defla, Algeria",reviewed,0,129,earthquake,2.9, Algeria,1.936,36.166,10.0,1992-01-19 13:00:29.910000+00:00,POINT (1.936 36.166)
695852492660,"8 km E of El Abadia, Algeria",reviewed,0,340,earthquake,4.7, Algeria,1.781,36.283,12.1,1992-01-19 20:21:32.660000+00:00,POINT (1.781 36.283)
695853828680,"9 km NNW of Aïn Defla, Algeria",reviewed,0,129,earthquake,2.9, Algeria,1.911,36.338,10.0,1992-01-19 20:43:48.680000+00:00,POINT (1.911 36.338)
695884036990,"65 km S of Isla Cristina, Spain",reviewed,0,148,earthquake,3.1, Spain,-7.249,36.612,10.0,1992-01-20 05:07:16.990000+00:00,POINT (-7.249 36.612)
695962119220,"3 km WNW of Zugarramurdi, Spain",reviewed,0,158,earthquake,3.2, Spain,-1.58,43.276,10.0,1992-01-21 02:48:39.220000+00:00,POINT (-1.58 43.276)
695990065390,"5 km NNW of El Tarter, Andorra",reviewed,0,121,earthquake,2.8, Andorra,1.615,42.625,10.0,1992-01-21 10:34:25.390000+00:00,POINT (1.615 42.625)
695991215670,"2 km W of Arudy, France",reviewed,0,15,earthquake,1.0, France,-0.469,43.102,10.0,1992-01-21 10:53:35.670000+00:00,POINT (-0.469 43.102)
696030500150,"15 km NE of Saint-Lary-Soulan, France",reviewed,0,112,earthquake,2.7, France,0.456,42.913,10.0,1992-01-21 21:48:20.150000+00:00,POINT (0.456 42.913)
696114355930,"2 km ENE of Arette, France",reviewed,0,15,earthquake,1.0, France,-0.688,43.103,10.0,1992-01-22 21:05:55.930000+00:00,POINT (-0.688 43.103)
696182300460,"4 km ESE of Montoro, Spain",reviewed,0,178,earthquake,3.4, Spain,-4.344,38.006,10.0,1992-01-23 15:58:20.460000+00:00,POINT (-4.344 38.006)
696198527550,"7 km SSW of Ogeu-les-Bains, France",reviewed,0,39,earthquake,1.6, France,-0.526,43.079,10.0,1992-01-23 20:28:47.550000+00:00,POINT (-0.526 43.079)
696246572270,"0 km N of Riba de Saelices, Spain",reviewed,0,168,earthquake,3.3, Spain,-2.298,40.919,10.0,1992-01-24 09:49:32.270000+00:00,POINT (-2.298 40.919)
696255426790,"5 km SSW of Arette, France",reviewed,0,15,earthquake,1.0, France,-0.75,43.051,10.0,1992-01-24 12:17:06.790000+00:00,POINT (-0.75 43.051)
696359824890,"10 km SE of Sanlúcar de Barrameda, Spain",reviewed,0,158,earthquake,3.2, Spain,-6.282,36.705,10.0,1992-01-25 17:17:04.890000+00:00,POINT (-6.282 36.705)
696366412670,Strait of Gibraltar,reviewed,0,112,earthquake,2.7,Strait of Gibraltar,-6.249,36.743,10.0,1992-01-25 19:06:52.670000+00:00,POINT (-6.249 36.743)
696366597300,"10 km E of Sanlúcar de Barrameda, Spain",reviewed,0,112,earthquake,2.7, Spain,-6.233,36.785,10.0,1992-01-25 19:09:57.300000+00:00,POINT (-6.233 36.785)
696384051370,"9 km NNE of Sallent de Gállego, Spain",reviewed,0,89,earthquake,2.4, Spain,-0.276,42.844,5.0,1992-01-26 00:00:51.370000+00:00,POINT (-0.276 42.844)
696420056680,"5 km NE of Arthez-de-Béarn, France",reviewed,0,148,earthquake,3.1, France,-0.568,43.5,10.0,1992-01-26 10:00:56.680000+00:00,POINT (-0.568 43.5)
696471061600,"2 km WNW of Montejicar, Spain",reviewed,0,129,earthquake,2.9, Spain,-3.535,37.578,10.0,1992-01-27 00:11:01.600000+00:00,POINT (-3.535 37.578)
696557334290,"18 km S of Cehegín, Spain",reviewed,0,188,earthquake,3.5, Spain,-1.82,37.926,10.0,1992-01-28 00:08:54.290000+00:00,POINT (-1.82 37.926)
696581109240,"6 km W of Chimeneas, Spain",reviewed,0,158,earthquake,3.2, Spain,-3.893,37.139,10.0,1992-01-28 06:45:09.240000+00:00,POINT (-3.893 37.139)
696602543540,"8 km ESE of Arette, France",reviewed,0,15,earthquake,1.0, France,-0.615,43.079,10.0,1992-01-28 12:42:23.540000+00:00,POINT (-0.615 43.079)
696635330070,"36 km SSW of Sausset-les-Pins, France",reviewed,0,121,earthquake,2.8, France,4.954,43.018,10.0,1992-01-28 21:48:50.070000+00:00,POINT (4.954 43.018)
696670670340,"8 km SW of Cuevas Bajas, Spain",reviewed,0,199,earthquake,3.6, Spain,-4.544,37.178,10.0,1992-01-29 07:37:50.340000+00:00,POINT (-4.544 37.178)
696689552270,"1 km E of Louvie-Juzon, France",reviewed,0,15,earthquake,1.0, France,-0.407,43.086,10.0,1992-01-29 12:52:32.270000+00:00,POINT (-0.407 43.086)
696706029990,"9 km NE of Garrucha, Spain",reviewed,0,121,earthquake,2.8, Spain,-1.747,37.241,10.0,1992-01-29 17:27:09.990000+00:00,POINT (-1.747 37.241)
696794952420,"10 km SW of Chipiona, Spain",reviewed,0,138,earthquake,3.0, Spain,-6.527,36.682,10.0,1992-01-30 18:09:12.420000+00:00,POINT (-6.527 36.682)
697104967000,"4 km NW of Arthez-de-Béarn, France",reviewed,0,199,earthquake,3.6, France,-0.648,43.499,10.0,1992-02-03 08:16:07+00:00,POINT (-0.648 43.499)
697284911720,"5 km NNW of Rota, Spain",reviewed,0,148,earthquake,3.1, Spain,-6.394,36.671,10.0,1992-02-05 10:15:11.720000+00:00,POINT (-6.394 36.671)
697285151250,"5 km NW of Rota, Spain",reviewed,0,158,earthquake,3.2, Spain,-6.401,36.658,10.0,1992-02-05 10:19:11.250000+00:00,POINT (-6.401 36.658)
697286309500,"8 km NNE of Rota, Spain",reviewed,0,121,earthquake,2.8, Spain,-6.321,36.694,10.0,1992-02-05 10:38:29.500000+00:00,POINT (-6.321 36.694)
697339621910,"14 km SW of Mauléon-Licharre, France",reviewed,0,30,earthquake,1.4, France,-1.012,43.128,10.0,1992-02-06 01:27:01.910000+00:00,POINT (-1.012 43.128)
697423884240,"4 km ESE of Palacios del Pan, Spain",reviewed,0,148,earthquake,3.1, Spain,-5.834,41.585,17.5,1992-02-07 00:51:24.240000+00:00,POINT (-5.834 41.585)
697457822070,Spain,reviewed,0,112,earthquake,2.7,Spain,-4.945,37.95,10.0,1992-02-07 10:17:02.070000+00:00,POINT (-4.945 37.95)
697480154110,"0 km WSW of Cájar, Spain",reviewed,0,104,earthquake,2.6, Spain,-3.577,37.133,10.0,1992-02-07 16:29:14.110000+00:00,POINT (-3.577 37.133)
697486441950,"20 km NNW of Mostaganem, Algeria",reviewed,0,104,earthquake,2.6, Algeria,-0.013,36.097,10.0,1992-02-07 18:14:01.950000+00:00,POINT (-0.013 36.097)
697595464520,"14 km SW of Mauléon-Licharre, France",reviewed,0,15,earthquake,1.0, France,-1.004,43.124,10.0,1992-02-09 00:31:04.520000+00:00,POINT (-1.004 43.124)
697616846970,"8 km S of Saintes-Maries-de-la-Mer, France",reviewed,0,112,earthquake,2.7, France,4.414,43.378,10.0,1992-02-09 06:27:26.970000+00:00,POINT (4.414 43.378)
697677998490,"8 km ESE of Arette, France",reviewed,0,15,earthquake,1.0, France,-0.611,43.074,5.0,1992-02-09 23:26:38.490000+00:00,POINT (-0.611 43.074)
697925149710,"39 km ENE of Cap Negro II, Morocco",reviewed,0,138,earthquake,3.0, Morocco,-4.874,35.776,91.5,1992-02-12 20:05:49.710000+00:00,POINT (-4.874 35.776)
697982537830,"9 km E of Arette, France",reviewed,0,15,earthquake,1.0, France,-0.604,43.103,5.0,1992-02-13 12:02:17.830000+00:00,POINT (-0.604 43.103)
698066219610,"5 km W of Fabara, Spain",reviewed,0,89,earthquake,2.4, Spain,0.109,41.174,10.0,1992-02-14 11:16:59.610000+00:00,POINT (0.109 41.174)
698066865110,"5 km E of Arette, France",reviewed,0,15,earthquake,1.0, France,-0.655,43.102,10.0,1992-02-14 11:27:45.110000+00:00,POINT (-0.655 43.102)
698198328580,"1 km SW of Arudy, France",reviewed,0,22,earthquake,1.2, France,-0.445,43.098,10.0,1992-02-15 23:58:48.580000+00:00,POINT (-0.445 43.098)
698220603990,"5 km NW of Mazarrón, Spain",reviewed,0,121,earthquake,2.8, Spain,-1.36,37.631,10.0,1992-02-16 06:10:03.990000+00:00,POINT (-1.36 37.631)
698270383660,"5 km WNW of Salinas, Spain",reviewed,0,121,earthquake,2.8, Spain,-0.966,38.543,10.0,1992-02-16 19:59:43.660000+00:00,POINT (-0.966 38.543)
698662343860,"6 km NW of Villanueva de San Juan, Spain",reviewed,0,112,earthquake,2.7, Spain,-5.22,37.093,5.0,1992-02-21 08:52:23.860000+00:00,POINT (-5.22 37.093)
698664586040,"8 km WNW of Villanueva de San Juan, Spain",reviewed,0,129,earthquake,2.9, Spain,-5.259,37.093,5.0,1992-02-21 09:29:46.040000+00:00,POINT (-5.259 37.093)
698741534790,"6 km NW of Villanueva de San Juan, Spain",reviewed,0,112,earthquake,2.7, Spain,-5.217,37.098,10.0,1992-02-22 06:52:14.790000+00:00,POINT (-5.217 37.098)
698923501640,"3 km ENE of Arette, France",reviewed,0,15,earthquake,1.0, France,-0.673,43.108,10.0,1992-02-24 09:25:01.640000+00:00,POINT (-0.673 43.108)
698934024770,"4 km W of Huércal de Almería, Spain",reviewed,0,148,earthquake,3.1, Spain,-2.486,36.883,10.0,1992-02-24 12:20:24.770000+00:00,POINT (-2.486 36.883)
699024112530,"7 km ESE of Cuntis, Spain",reviewed,0,168,earthquake,3.3, Spain,-8.474,42.619,10.0,1992-02-25 13:21:52.530000+00:00,POINT (-8.474 42.619)
699101580740,"11 km N of Aïn el Bya, Algeria",reviewed,0,246,earthquake,4.0, Algeria,-0.319,35.904,10.0,1992-02-26 10:53:00.740000+00:00,POINT (-0.319 35.904)
699105180990,"10 km WNW of Aïn el Bya, Algeria",reviewed,0,246,earthquake,4.0, Algeria,-0.397,35.855,10.0,1992-02-26 11:53:00.990000+00:00,POINT (-0.397 35.855)
699186900410,"9 km E of Arette, France",reviewed,0,15,earthquake,1.0, France,-0.606,43.088,10.0,1992-02-27 10:35:00.410000+00:00,POINT (-0.606 43.088)
699217114690,"18 km SSW of Mauléon-Licharre, France",reviewed,0,15,earthquake,1.0, France,-1.002,43.082,10.0,1992-02-27 18:58:34.690000+00:00,POINT (-1.002 43.082)
699416090740,"3 km NNE of Taboadela, Spain",reviewed,0,112,earthquake,2.7, Spain,-7.809,42.272,10.0,1992-03-01 02:14:50.740000+00:00,POINT (-7.809 42.272)
699416090740,"3 km NNE of Taboadela, Spain",reviewed,0,112,earthquake,2.7, Spain,-7.809,42.272,10.0,1992-03-01 02:14:50.740000+00:00,POINT (-7.809 42.272)
699424415420,"6 km N of Bielsa, Spain",reviewed,0,89,earthquake,2.4, Spain,0.228,42.693,10.0,1992-03-01 04:33:35.420000+00:00,POINT (0.228 42.693)
699424415420,"6 km N of Bielsa, Spain",reviewed,0,89,earthquake,2.4, Spain,0.228,42.693,10.0,1992-03-01 04:33:35.420000+00:00,POINT (0.228 42.693)
699625764070,"5 km W of Ogeu-les-Bains, France",reviewed,0,15,earthquake,1.0, France,-0.569,43.145,10.0,1992-03-03 12:29:24.070000+00:00,POINT (-0.569 43.145)
699735726390,"3 km ENE of Luque, Spain",reviewed,0,121,earthquake,2.8, Spain,-4.247,37.566,10.0,1992-03-04 19:02:06.390000+00:00,POINT (-4.247 37.566)
699932049660,"78 km S of Adra, Spain",reviewed,0,158,earthquake,3.2, Spain,-2.875,36.05,10.0,1992-03-07 01:34:09.660000+00:00,POINT (-2.875 36.05)
700074999960,"9 km SE of Saintes-Maries-de-la-Mer, France",reviewed,0,138,earthquake,3.0, France,4.498,43.388,15.1,1992-03-08 17:16:39.960000+00:00,POINT (4.498 43.388)
700123169620,"13 km WSW of Vendas Novas, Portugal",reviewed,0,158,earthquake,3.2, Portugal,-8.588,38.611,10.0,1992-03-09 06:39:29.620000+00:00,POINT (-8.588 38.611)
700130719990,"8 km SSW of Saint-Pé-de-Bigorre, France",reviewed,0,121,earthquake,2.8, France,-0.206,43.032,10.0,1992-03-09 08:45:19.990000+00:00,POINT (-0.206 43.032)
700194088670,"3 km WSW of Villanueva de Tapia, Spain",reviewed,0,148,earthquake,3.1, Spain,-4.369,37.171,10.0,1992-03-10 02:21:28.670000+00:00,POINT (-4.369 37.171)
700235222420,"5 km ESE of Albánchez, Spain",reviewed,0,129,earthquake,2.9, Spain,-2.128,37.263,10.0,1992-03-10 13:47:02.420000+00:00,POINT (-2.128 37.263)
700405555250,"36 km E of Melilla, Spain",reviewed,0,432,earthquake,5.3, Spain,-2.532,35.308,21.7,1992-03-12 13:05:55.250000+00:00,POINT (-2.532 35.308)
700406477210,"23 km NW of Saidia, Morocco",reviewed,0,168,earthquake,3.3, Morocco,-2.42,35.219,10.0,1992-03-12 13:21:17.210000+00:00,POINT (-2.42 35.219)
700415493150,"16 km N of Saidia, Morocco",reviewed,0,168,earthquake,3.3, Morocco,-2.232,35.23,10.0,1992-03-12 15:51:33.150000+00:00,POINT (-2.232 35.23)
